id_mutation,valeur_fonciere,adresse_numero,adresse_nom_voie,code_postal,surface_reelle_bati,nombre_pieces_principales,longitude,latitude
2022-1352907,580000.0,13.0,RUE DE SOFIA,75018.0,20.0,2.0,2.348168,48.88449
2022-1352907,580000.0,13.0,RUE DE SOFIA,75018.0,25.0,2.0,2.348168,48.88449
2022-1352908,605000.0,51.0,RUE CHARLOT,75003.0,42.0,3.0,2.362871,48.863374
2022-1352911,716250.0,6.0,RUE PAUL ESCUDIER,75009.0,69.0,3.0,2.332324,48.880353
2022-1352912,320000.0,4.0,RUE DU CHATEAU LANDON,75010.0,33.0,2.0,2.362613,48.879658
2022-1352913,320000.0,134.0,AV GAMBETTA,75020.0,29.0,1.0,2.405513,48.872782
2022-1352914,220000.0,9.0,RUE ELYSEE MENILMONTANT,75020.0,36.0,2.0,2.386648,48.869335
2022-1352915,280000.0,18.0,RUE DES HAIES,75020.0,28.0,2.0,2.400622,48.852508
2022-1352916,200000.0,195.0,RUE DE CRIMEE,75019.0,27.0,2.0,2.375845,48.891167
2022-1352917,677500.0,79.0,RUE DES GRAVILLIERS,75003.0,58.0,3.0,2.353479,48.864674
2022-1352918,445000.0,4.0,RUE GEORGES LARDENNOIS,75019.0,47.0,2.0,2.375861,48.877955
2022-1352919,425890.0,129.0,BD MORTIER,75020.0,52.0,2.0,2.408031,48.873089
2022-1352921,660000.0,141.0,RUE DES POISSONNIERS,75018.0,81.0,3.0,2.352517,48.895742
2022-1352923,820000.0,89.0,RUE DE ROME,75017.0,70.0,3.0,2.319232,48.883017
2022-1352924,293000.0,7.0,RUE SAINT-MARC,75002.0,22.0,1.0,2.341378,48.870214
2022-1352925,405970.0,42.0,RUE LOUIS BLANC,75010.0,40.0,3.0,2.364455,48.881942
2022-1352926,505000.0,14.0,RUE DU PERCHE,75003.0,48.0,2.0,2.361158,48.861123
2022-1352927,247500.0,15.0,RUE DU HUIT MAI 1945,75010.0,19.0,1.0,2.356846,48.876155
2022-1352928,616750.0,82.0,RUE DES HAIES,75020.0,40.0,2.0,2.40389,48.854813
2022-1352929,14800.0,28.0,RUE LA CONDAMINE,75017.0,30.0,2.0,2.322935,48.887298
2022-1352930,300000.0,55.0,RUE STEPHENSON,75018.0,38.0,1.0,2.355461,48.88954
2022-1352931,504650.0,23.0,RUE DU TERRAGE,75010.0,52.0,2.0,2.362334,48.877306
2022-1352932,755000.0,37.0,RUE JOSEPH DE MAISTRE,75018.0,59.0,4.0,2.33034,48.892205
2022-1352934,335000.0,75.0,AV NIEL,75017.0,33.0,2.0,2.295735,48.882706
2022-1352935,514500.0,18.0,RUE DARCET,75017.0,54.0,3.0,2.32501,48.88418
2022-1352936,725000.0,16.0,CITE DE TREVISE,75009.0,70.0,3.0,2.34717,48.875019
2022-1352937,150000.0,7.0,RUE DU CAPITAINE FERBER,75020.0,14.0,1.0,2.405101,48.86549
2022-1352939,963000.0,31.0,RUE DES BATIGNOLLES,75017.0,76.0,3.0,2.320776,48.884763
2022-1352940,15000.0,114.0,RUE DE MEAUX,75019.0,15.0,1.0,2.381779,48.88543
2022-1352941,441800.0,21.0,RUE JEAN LECLAIRE,75017.0,45.0,2.0,2.325655,48.894863
2022-1352942,296400.0,3.0,RUE PAUL DUBOIS,75003.0,23.0,2.0,2.360887,48.865301
2022-1352943,210000.0,8.0,PAS DESGRAIS,75019.0,26.0,1.0,2.37291,48.891561
2022-1352944,1250000.0,99.0,BD MALESHERBES,75008.0,64.0,3.0,2.314225,48.878897
2022-1352945,214160.0,7.0,RUE DU CARDINAL MERCIER,75009.0,25.0,1.0,2.329484,48.881339
2022-1352946,309000.0,30.0,RUE DES BOIS,75019.0,41.0,2.0,2.399576,48.878162
2022-1352948,485000.0,62.0,AV CLAUDE VELLEFAUX,75010.0,70.0,3.0,2.370665,48.876632
2022-1352949,379300.0,23.0,RUE BLANCHE,75009.0,29.0,1.0,2.331073,48.87934
2022-1352951,1150000.0,60.0,RUE BLANCHE,75009.0,88.0,4.0,2.331698,48.880751
2022-1352952,350000.0,183.0,RUE SAINT MAUR,75010.0,30.0,2.0,2.372114,48.870918
2022-1352954,310000.0,6.0,PAS DES FOURS A CHAUX,75019.0,66.0,3.0,2.373024,48.879531
2022-1352955,100000.0,9.0,RUE DE LABORDE,75008.0,10.0,1.0,2.322081,48.875556
2022-1352956,448500.0,6.0,AV DE FLANDRE,75019.0,48.0,3.0,2.369904,48.884552
2022-1352957,330000.0,47.0,RUE DES ACACIAS,75017.0,30.0,1.0,2.293326,48.878254
2022-1352958,360000.0,3.0,VLA STENDHAL,75020.0,39.0,2.0,2.401502,48.862231
2022-1352959,324500.0,171.0,BD DE LA VILLETTE,75010.0,69.0,3.0,2.364975,48.884056
2022-1352960,414270.0,6.0,RUE DE BEAUCE,75003.0,27.0,1.0,2.36094,48.862446
2022-1352961,500000.0,19.0,RUE PONCELET,75017.0,115.0,6.0,2.296942,48.879437
2022-1352962,765420.0,53.0,BD DE LA VILLETTE,75010.0,69.0,3.0,2.372439,48.875331
2022-1352963,365000.0,46.0,RUE DES ABBESSES,75018.0,28.0,1.0,2.336288,48.88558
2022-1352964,42000.0,41.0,RUE DE LA REUNION,75020.0,6.0,1.0,2.401783,48.854656
2022-1352965,722000.0,36.0,RUE DE MOSCOU,75008.0,63.0,3.0,2.323484,48.881567
2022-1352966,820000.0,72.0,RUE DUHESME,75018.0,81.0,4.0,2.343556,48.89373
2022-1352967,643500.0,22.0,RUE LEMERCIER,75017.0,56.0,3.0,2.324319,48.886283
2022-1352969,300600.0,7.0,RUE JOSEPH DIJON,75018.0,28.0,2.0,2.346863,48.893734
2022-1352971,192000.0,12.0,RUE FAUVET,75018.0,18.0,1.0,2.327259,48.889267
2022-1352972,873200.0,161.0,RUE MARCADET,75018.0,76.0,3.0,2.337299,48.891073
2022-1352973,1875500.0,52.0,RUE DU FBG POISSONNIERE,75010.0,160.0,4.0,2.348692,48.874583
2022-1352974,559500.0,33.0,RUE DE CHAZELLES,75017.0,46.0,2.0,2.305323,48.880806
2022-1352975,315000.0,25.0,RUE ST VINCENT DE PAUL,75010.0,28.0,2.0,2.352427,48.881744
2022-1352976,580000.0,46.0,RUE DE LANCRY,75010.0,55.0,3.0,2.362654,48.871712
2022-1352978,581934.0,1.0,RUE CIVIALE,75010.0,54.0,3.0,2.376032,48.87238
2022-1352979,385000.0,40.0,RUE DE LA JUSTICE,75020.0,58.0,3.0,2.407601,48.868473
2022-1352980,1530000.0,106.0,RUE JOUFFROY D'ABBANS,75017.0,105.0,3.0,2.301959,48.882529
2022-1352981,328000.0,16.0,RUE LUCIEN SAMPAIX,75010.0,34.0,1.0,2.360901,48.87189
2022-1352982,190000.0,101.0,RUE DU FBG SAINT DENIS,75010.0,19.0,1.0,2.355141,48.874902
2022-1352983,530000.0,49.0,RUE PAJOL,75018.0,66.0,3.0,2.362389,48.889438
2022-1352984,302000.0,7.0,RUE DU MAIL,75002.0,25.0,1.0,2.34193,48.866846
2022-1352985,524000.0,40.0,RUE D HAUTPOUL,75019.0,63.0,3.0,2.388699,48.883747
2022-1352986,17714.0,136.0,RUE CHAMPIONNET,75018.0,27.0,1.0,2.337042,48.89574
2022-1352987,180000.0,4.0,RUE SQUARE CARPEAUX,75018.0,16.0,1.0,2.333201,48.892588
2022-1352988,80000000.0,1.0,RUE FRANCOIS 1ER,75008.0,39.0,3.0,2.309517,48.865119
2022-1352988,80000000.0,1.0,RUE FRANCOIS 1ER,75008.0,59.0,2.0,2.309517,48.865119
2022-1352988,80000000.0,1.0,RUE FRANCOIS 1ER,75008.0,248.0,7.0,2.309517,48.865119
2022-1352988,80000000.0,1.0,RUE FRANCOIS 1ER,75008.0,172.0,4.0,2.309517,48.865119
2022-1352989,400000.0,9.0,BD MORLAND,75004.0,27.0,1.0,2.364563,48.848333
2022-1352990,543690.0,4.0,CITE PIGALLE,75009.0,46.0,1.0,2.334178,48.880228
2022-1352991,697000.0,19.0,RUE DUHESME,75018.0,65.0,3.0,2.338231,48.890914
2022-1352992,1611000.0,66.0,RUE DES MATHURINS,75008.0,118.0,3.0,2.321082,48.873649
2022-1352993,965000.0,21.0,RUE VICTOR MASSE,75009.0,75.0,4.0,2.338247,48.880612
2022-1352994,1365500.0,84.0,RUE DE TURENNE,75003.0,100.0,4.0,2.364917,48.861057
2022-1352995,1200.0,3.0,RUE POULET,75018.0,40.0,2.0,2.347966,48.886723
2022-1352997,887550.0,54.0,RUE DE DUNKERQUE,75009.0,71.0,3.0,2.347982,48.881911
2022-1352999,590000.0,14.0,PAS LATHUILLE,75018.0,48.0,3.0,2.328022,48.884655
2022-1353000,155526.0,151.0,RUE SAINT MARTIN,75003.0,29.0,1.0,2.351545,48.861952
2022-1353001,405000.0,41.0,RUE BOURSAULT,75017.0,36.0,3.0,2.318869,48.88474
2022-1353002,187575.0,87.0,RUE PELLEPORT,75020.0,22.0,1.0,2.400045,48.869331
2022-1353003,355000.0,42.0,RUE DOUDEAUVILLE,75018.0,32.0,2.0,2.354865,48.888791
2022-1353005,465000.0,9.0,RUE BOCHART DE SARON,75009.0,30.0,2.0,2.341837,48.882132
2022-1353006,350000.0,6.0,RUE DULONG,75017.0,29.0,1.0,2.3182,48.883639
2022-1353008,420000.0,14.0,RUE CHAPTAL,75009.0,33.0,4.0,2.333516,48.881051
2022-1353009,344000.0,115.0,RUE LA FAYETTE,75010.0,29.0,2.0,2.352668,48.878439
2022-1353010,525400.0,7.0,RUE CONSTANCE,75018.0,45.0,3.0,2.333234,48.885374
2022-1353012,129000.0,20.0,RUE DE L EQUERRE,75019.0,15.0,1.0,2.38239,48.874331
2022-1353013,260000.0,82.0,BD DE BELLEVILLE,75020.0,21.0,2.0,2.379834,48.870032
2022-1353014,1750000.0,84.0,AV NIEL,75017.0,145.0,6.0,2.296995,48.883214
2022-1353015,1054200.0,23.0,RUE DE NAPLES,75008.0,77.0,3.0,2.319202,48.879549
2022-1353017,180000.0,19.0,RUE DE LA CR DES NOUES,75020.0,20.0,1.0,2.402124,48.864001
2022-1353019,230000.0,13.0,RUE EUGENE VARLIN,75010.0,29.0,2.0,2.364113,48.878319
2022-1353020,881000.0,196.0,BD PEREIRE,75017.0,78.0,3.0,2.289105,48.881146
2022-1353021,915000.0,3.0,RUE MALHER,75004.0,67.0,3.0,2.361008,48.855637
2022-1353022,272000.0,14.0,RUE JUILLET,75020.0,31.0,1.0,2.391402,48.867897
2022-1353023,261550.0,236.0,RUE SAINT MARTIN,75003.0,24.0,1.0,2.353398,48.864358
2022-1353024,140000.0,58.0,RUE CHAMPIONNET,75018.0,18.0,1.0,2.347331,48.895868
2022-1353027,760000.0,40.0,RUE DU DOCTEUR HEULIN,75017.0,67.0,2.0,2.324759,48.891013
2022-1353028,317000.0,73.0,RUE DE BAGNOLET,75020.0,35.0,2.0,2.399808,48.858197
2022-1353029,1050000.0,11.0,RUE JEAN MERMOZ,75008.0,52.0,2.0,2.311265,48.871131
2022-1353031,390000.0,12.0,RUE DE SAINTONGE,75003.0,33.0,1.0,2.362349,48.861542
2022-1353032,306000.0,6.0,RUE ANDRE ANTOINE,75018.0,26.0,2.0,2.337717,48.88289
2022-1353033,435000.0,79.0,RUE VIEILLE DU TEMPLE,75003.0,18.0,1.0,2.359295,48.859193
2022-1353034,888976.0,15.0,RUE DU POTEAU,75018.0,69.0,3.0,2.342388,48.893395
2022-1353035,165000.0,4.0,RUE JEAN COTTIN,75018.0,21.0,1.0,2.361734,48.893485
2022-1353036,128000.0,2.0,CITE ADRIENNE,75020.0,15.0,1.0,2.401826,48.85838
2022-1353037,232000.0,13.0,RUE M. ELEONORE DE BELLEFOND,75009.0,16.0,1.0,2.34769,48.877414
2022-1353038,463000.0,30.0,RUE CAVENDISH,75019.0,53.0,3.0,2.379945,48.883503
2022-1353039,2354000.0,5.0,PL DES TERNES,75017.0,174.0,4.0,2.297341,48.87851
2022-1353040,134000.0,6.0,IMP DE LA DEFENSE,75018.0,14.0,1.0,2.327364,48.885267
2022-1353041,2150000.0,47.0,RUE CARDINET,75017.0,221.0,7.0,2.305668,48.882762
2022-1353042,390000.0,200.0,RUE CHAMPIONNET,75018.0,33.0,2.0,2.330916,48.894161
2022-1353043,411221.0,29.0,RUE ETIENNE DOLET,75020.0,40.0,2.0,2.385108,48.868144
2022-1353044,40000.0,23.0,RUE DES MARTYRS,75009.0,6.0,1.0,2.339175,48.878421
2022-1353045,467000.0,99.0,RUE ORFILA,75020.0,46.0,3.0,2.400474,48.868358
2022-1353046,788901.3,10.0,RUE DE TRACY,75002.0,80.0,4.0,2.352588,48.868159
2022-1353047,907800.0,89.0,RUE TRUFFAUT,75017.0,68.0,3.0,2.316626,48.888532
2022-1353048,305000.0,57.0,RUE DES EPINETTES,75017.0,34.0,2.0,2.323666,48.897026
2022-1353049,200000.0,8.0,RUE FRANCIS CARCO,75018.0,30.0,2.0,2.356411,48.889262
2022-1353050,520000.0,10.0,RUE DU DOBROPOL,75017.0,54.0,2.0,2.286096,48.883131
2022-1353051,322300.0,36.0,RUE LETORT,75018.0,31.0,2.0,2.343634,48.895639
2022-1353052,336600.0,39.0,RUE DU POTEAU,75018.0,40.0,2.0,2.341141,48.894094
2022-1353053,331760.0,28.0,RUE LESAGE,75020.0,30.0,3.0,2.382876,48.872371
2022-1353054,259000.0,48.0,RUE DES HAIES,75020.0,25.0,2.0,2.402401,48.853323
2022-1353055,340000.0,39.0,RUE SAINT FARGEAU,75020.0,41.0,2.0,2.403264,48.872381
2022-1353058,310000.0,5.0,CITE HERON,75010.0,33.0,2.0,2.365038,48.874442
2022-1353059,497000.0,395.0,RUE DES PYRENEES,75020.0,58.0,3.0,2.386542,48.873688
2022-1353061,455000.0,50.0,RUE LABAT,75018.0,42.0,3.0,2.347194,48.889183
2022-1353062,500000.0,38.0,RUE DU TEMPLE,75004.0,38.0,1.0,2.354867,48.859709
2022-1353063,293000.0,8.0,RUE GUSTAVE ROUANET,75018.0,34.0,2.0,2.340625,48.896686
2022-1353066,260000.0,46.0,AV MATHURIN MOREAU,75019.0,26.0,1.0,2.376695,48.878294
2022-1353067,589200.0,2.0,AV DE SAINT OUEN,75018.0,52.0,3.0,2.326107,48.887578
2022-1353068,320000.0,23.0,RUE RODIER,75009.0,28.0,2.0,2.34279,48.87888
2022-1353069,638000.0,7.0,BD BERTHIER,75017.0,80.0,2.0,2.312891,48.89375
2022-1353071,1705430.0,34.0,RUE PONCELET,75017.0,145.0,5.0,2.298636,48.87964
2022-1353072,526500.0,21.0,RUE SIMART,75018.0,43.0,2.0,2.347608,48.890718
2022-1353074,803000.0,10.0,RUE DE TREVISE,75009.0,53.0,3.0,2.345343,48.873352
2022-1353075,179000.0,19.0,RUE COMMINES,75003.0,18.0,1.0,2.366355,48.862428
2022-1353076,590200.0,7.0,RUE NOTRE-DAME DE NAZARETH,75003.0,46.0,3.0,2.360903,48.866846
2022-1353077,383200.0,21.0,RUE VERON,75018.0,31.0,2.0,2.335532,48.884797
2022-1353078,470000.0,93.0,RUE REBEVAL,75019.0,44.0,3.0,2.383246,48.873727
2022-1353079,333250.0,15.0,RUE ARTHUR ROZIER,75019.0,27.0,1.0,2.39027,48.877187
2022-1353081,176000.0,44.0,RUE D AVRON,75020.0,17.0,1.0,2.402358,48.851826
2022-1353082,510925.0,17.0,RUE DE NAPLES,75008.0,8.0,1.0,2.319673,48.879583
2022-1353082,510925.0,17.0,RUE DE NAPLES,75008.0,32.0,2.0,2.319673,48.879583
2022-1353083,630000.0,62.0,RUE TAITBOUT,75009.0,48.0,2.0,2.335512,48.87569
2022-1353085,784000.0,32.0,RUE BUISSON ST LOUIS,75010.0,75.0,3.0,2.374994,48.873281
2022-1353086,186000.0,48.0,RUE NOTRE-DAME DE LORETTE,75009.0,20.0,1.0,2.336368,48.879706
2022-1353087,254000.0,24.0,RUE BUISSON ST LOUIS,75010.0,30.0,1.0,2.374538,48.872566
2022-1353088,250000.0,49.0,RUE DE ROCHECHOUART,75009.0,16.0,1.0,2.345011,48.879296
2022-1353089,743000.0,8.0,RUE DU CHATEAU LANDON,75010.0,64.0,3.0,2.36272,48.879833
2022-1353090,100000.0,13.0,RUE DE L ECHIQUIER,75010.0,13.0,1.0,2.351948,48.87107
2022-1353091,420000.0,9.0,RUE FEUTRIER,75018.0,38.0,2.0,2.346351,48.886462
2022-1353092,579200.0,26.0,RUE CLAIRAUT,75017.0,51.0,3.0,2.31976,48.888476
2022-1353094,552000.0,10.0,RUE SEVESTE,75018.0,45.0,3.0,2.344858,48.883857
2022-1353095,317770.0,15.0,RUE JOSEPH DIJON,75018.0,30.0,2.0,2.346169,48.893921
2022-1353096,295000.0,55.0,RUE DES ABBESSES,75018.0,46.0,3.0,2.335656,48.885398
2022-1353097,585000.0,23.0,RUE DULONG,75017.0,45.0,2.0,2.316974,48.884207
2022-1353099,922800.0,71.0,RUE TRUFFAUT,75017.0,59.0,3.0,2.31863,48.887369
2022-1353100,1725000.0,171.0,BD PEREIRE,75017.0,136.0,5.0,2.292273,48.881907
2022-1353101,577550.0,11.0,RUE DES HAIES,75020.0,51.0,3.0,2.399936,48.852697
2022-1353102,310000.0,22.0,RUE DE BAGNOLET,75020.0,35.0,3.0,2.396653,48.856564
2022-1353103,1180850.0,6.0,RUE DU CAIRE,75002.0,110.0,4.0,2.352381,48.867373
2022-1353104,554000.0,27.0,BD DE MAGENTA,75010.0,50.0,2.0,2.360331,48.871025
2022-1353104,554000.0,27.0,BD DE MAGENTA,75010.0,64.0,3.0,2.360331,48.871025
2022-1353105,585000.0,153.0,RUE CARDINET,75017.0,49.0,2.0,2.31643,48.890944
2022-1353106,275000.0,13.0,RUE CHARLES FRIEDEL,75020.0,63.0,2.0,2.395521,48.873221
2022-1353107,1330000.0,4.0,RUE MILNE EDWARDS,75017.0,90.0,3.0,2.292542,48.88298
2022-1353108,536800.0,15.0,RUE DES HAIES,75020.0,55.0,3.0,2.400236,48.852852
2022-1353110,115000.0,22.0,RUE PLANCHAT,75020.0,12.0,1.0,2.398768,48.853217
2022-1353111,335000.0,48.0,RUE CHAMPIONNET,75018.0,27.0,2.0,2.348054,48.895806
2022-1353113,304000.0,4.0,RUE DE MONTHOLON,75009.0,24.0,2.0,2.34845,48.876732
2022-1353114,580000.0,27.0,VLA SAINT MICHEL,75018.0,44.0,3.0,2.328363,48.889649
2022-1353115,3410000.0,4.0,RUE MARBEUF,75008.0,190.0,5.0,2.301957,48.866936
2022-1353116,110000.0,13.0,RUE DE LA TOUR DES DAMES,75009.0,17.0,1.0,2.33254,48.8776
2022-1353117,423030.0,1.0,RUE CUSTINE,75018.0,43.0,3.0,2.34912,48.887266
2022-1353118,703000.0,42.0,RUE DE LA CHINE,75020.0,58.0,2.0,2.397498,48.869106
2022-1353120,260000.0,4.0,PAS DESGRAIS,75019.0,24.0,1.0,2.37291,48.891561
2022-1353120,260000.0,4.0,PAS DESGRAIS,75019.0,24.0,1.0,2.37291,48.891561
2022-1353121,322000.0,11.0,RUE ANGELIQUE COMPOINT,75018.0,40.0,3.0,2.33528,48.89726
2022-1353122,237000.0,47.0,RUE GUY MOQUET,75017.0,20.0,1.0,2.324082,48.89256
2022-1353123,7000.0,100.0,QUAI DE JEMMAPES,75010.0,22.0,1.0,2.364254,48.873494
2022-1353125,145900.0,40.0,RUE DE LA CHINE,75020.0,14.0,1.0,2.397223,48.869056
2022-1353126,951465.0,47.0,AV MATHURIN MOREAU,75019.0,110.0,4.0,2.376389,48.879017
2022-1353127,7000.0,9.0,RUE FENELON,75010.0,63.0,2.0,2.351119,48.878731
2022-1353128,800000.0,55.0,RUE DE MAUBEUGE,75009.0,71.0,3.0,2.347613,48.879308
2022-1353129,133000.0,40.0,RUE DU DOCTEUR HEULIN,75017.0,13.0,1.0,2.324759,48.891013
2022-1353130,329920.0,6.0,RUE LE REGRATTIER,75004.0,20.0,2.0,2.354676,48.851911
2022-1353131,330000.0,3.0,PAS DE LA MOSELLE,75019.0,25.0,1.0,2.377607,48.884382
2022-1353132,454900.0,39.0,RUE ALPHONSE PENAUD,75020.0,62.0,3.0,2.405847,48.868551
2022-1353133,278000.0,8.0,RUE AUGER,75020.0,38.0,2.0,2.399414,48.850911
2022-1353134,600000.0,71.0,RUE DU FBG ST MARTIN,75010.0,58.0,3.0,2.357044,48.872284
2022-1353135,540000.0,21.0,RUE VAUVENARGUES,75018.0,49.0,2.0,2.33266,48.893165
2022-1353136,591550.0,28.0,RUE D ORAN,75018.0,33.0,1.0,2.352408,48.889176
2022-1353136,591550.0,28.0,RUE D ORAN,75018.0,21.0,1.0,2.352408,48.889176
2022-1353136,591550.0,28.0,RUE D ORAN,75018.0,26.0,1.0,2.352408,48.889176
2022-1353137,365000.0,2.0,RUE COMMINES,75003.0,32.0,2.0,2.364918,48.861447
2022-1353138,273000.0,15.0,RUE DU RHIN,75019.0,33.0,2.0,2.381874,48.884218
2022-1353140,210000.0,66.0,RUE CHAPON,75003.0,20.0,1.0,2.35321,48.86427
2022-1353141,360000.0,5.0,PAS DELESSERT,75010.0,38.0,2.0,2.365172,48.878782
2022-1353142,387210.0,28.0,RUE PETRELLE,75009.0,33.0,1.0,2.346963,48.880974
2022-1353143,860000.0,10.0,RUE BOUTAREL,75004.0,45.0,2.0,2.354122,48.852426
2022-1353144,142500.0,5.0,RUE CALMELS,75018.0,15.0,1.0,2.339916,48.893375
2022-1353145,295000.0,1.0,RUE PIXERECOURT,75020.0,30.0,1.0,2.394878,48.870454
2022-1353146,4000.0,55.0,RUE AU MAIRE,75003.0,75.0,3.0,2.354699,48.864762
2022-1353147,620000.0,2.0,ALL GEORGES ROUAULT,75020.0,89.0,5.0,2.384231,48.869706
2022-1353148,234300.0,8.0,RUE DE BAGNOLET,75020.0,30.0,1.0,2.39548,48.856499
2022-1353149,188010.0,38.0,RUE D AVRON,75020.0,19.0,2.0,2.402088,48.851681
2022-1353150,390000.0,9.0,RUE D AUBERVILLIERS,75018.0,43.0,2.0,2.364914,48.88527
2022-1353151,110000.0,40.0,RUE DE MENILMONTANT,75020.0,12.0,1.0,2.386761,48.867774
2022-1353152,810000.0,6.0,RUE HIPPOLYTE LEBAS,75009.0,56.0,3.0,2.341115,48.877191
2022-1353153,344500.0,7.0,RUE JOUFFROY D'ABBANS,75017.0,28.0,2.0,2.312946,48.886912
2022-1353154,312090.0,74.0,AV JEAN JAURES,75019.0,32.0,2.0,2.377781,48.88443
2022-1353155,300000.0,39.0,RUE SAINT FARGEAU,75020.0,28.0,1.0,2.403264,48.872381
2022-1353157,290000.0,50.0,RUE DE LA JUSTICE,75020.0,28.0,1.0,2.408002,48.868237
2022-1353158,400000.0,1.0,RUE CASTEX,75004.0,34.0,1.0,2.3656,48.852542
2022-1353159,778200.0,13.0,RUE DES PETITES ECURIES,75010.0,72.0,3.0,2.352617,48.873116
2022-1353160,560125.0,311.0,RUE DE BELLEVILLE,75019.0,86.0,4.0,2.403447,48.876651
2022-1353161,138000.0,8.0,RUE PUGET,75018.0,23.0,1.0,2.333753,48.883932
2022-1353162,150000.0,35.0,RUE SAINT-GEORGES,75009.0,13.0,1.0,2.336877,48.877025
2022-1353163,1523850.0,155.0,RUE DU FG POISSONNIERE,75009.0,138.0,5.0,2.349509,48.880687
2022-1353165,860000.0,20.0,RUE DES MARAICHERS,75020.0,87.0,4.0,2.408165,48.849311
2022-1353166,368600.0,52.0,RUE DU FAUBOURG SAINT HONORE,75008.0,30.0,1.0,2.320183,48.869787
2022-1353167,480000.0,1.0,RUE ERNEST LEFEVRE,75020.0,69.0,3.0,2.402958,48.868311
2022-1353168,196550.0,25.0,RUE JEAN ET MARIE MOINON,75010.0,19.0,2.0,2.37191,48.874546
2022-1353169,360000.0,12.0,RUE DES ENVIERGES,75020.0,38.0,2.0,2.38645,48.871625
2022-1353170,820700.0,55.0,AV JEAN JAURES,75019.0,78.0,4.0,2.375535,48.884625
2022-1353171,1080000.0,15.0,BD DE BONNE NOUVELLE,75002.0,80.0,3.0,2.350301,48.869889
2022-1353172,430000.0,14.0,RUE DE TORCY,75018.0,46.0,2.0,2.363731,48.891431
2022-1353173,753000.0,2.0,VLA ORNANO,75018.0,60.0,3.0,2.345251,48.896391
2022-1353174,515000.0,36.0,AV DE FLANDRE,75019.0,57.0,3.0,2.372322,48.886413
2022-1353175,369262.0,24.0,RUE DE BAGNOLET,75020.0,39.0,2.0,2.396993,48.856494
2022-1353176,313000.0,111.0,RUE DES MOINES,75017.0,27.0,2.0,2.322838,48.893271
2022-1353177,460500.0,60.0,RUE DE PONTHIEU,75008.0,36.0,1.0,2.305643,48.872341
2022-1353178,298000.0,16.0,RUE LALLY TOLLENDAL,75019.0,33.0,2.0,2.374062,48.883375
2022-1353179,280000.0,45.0,RUE MARX DORMOY,75018.0,36.0,2.0,2.359116,48.887721
2022-1353181,290754.0,2.0,RUE HERMANN LACHAPELLE,75018.0,64.0,3.0,2.35144,48.894193
2022-1353182,520000.0,75.0,RUE CHARLOT,75003.0,44.0,3.0,2.363918,48.864284
2022-1353183,455000.0,2.0,RUE LANTIEZ,75017.0,35.0,3.0,2.322979,48.893666
2022-1353185,135700.0,6.0,RUE VERSIGNY,75018.0,16.0,1.0,2.344725,48.89464
2022-1353186,1123600.0,3.0,RUE ETIENNE MARCEL,75001.0,110.0,4.0,2.350362,48.863311
2022-1353187,428800.0,15.0,RUE DAUTANCOURT,75017.0,42.0,2.0,2.324054,48.889653
2022-1353188,532400.0,7.0,RUE CHATEAUBRIAND,75008.0,35.0,2.0,2.302063,48.873295
2022-1353189,380000.0,2.0,PL CHARLES BERNARD,75018.0,33.0,2.0,2.343103,48.893378
2022-1353190,860000.0,37.0,RUE SAINT-GEORGES,75009.0,82.0,4.0,2.336865,48.877197
2022-1353191,817000.0,135.0,RUE SAINT ANTOINE,75004.0,140.0,6.0,2.359634,48.855127
2022-1353192,282000.0,18.0,RUE JEAN-BAPTISTE PIGALLE,75009.0,27.0,1.0,2.333366,48.878715
2022-1353193,500000.0,19.0,RUE LALLY TOLLENDAL,75019.0,51.0,3.0,2.373401,48.883398
2022-1353195,280000.0,35.0,RUE LEMERCIER,75017.0,55.0,3.0,2.323025,48.886685
2022-1353196,273600.0,47.0,RUE PLANCHAT,75020.0,30.0,2.0,2.396905,48.855003
2022-1353197,581000.0,7.0,QUAI DE L OISE,75019.0,63.0,3.0,2.381457,48.890078
2022-1353198,599900.0,48.0,RUE DE BELLEVILLE,75020.0,60.0,1.0,2.381385,48.87302
2022-1353199,530000.0,15.0,RUE LA BRUYERE,75009.0,40.0,2.0,2.335638,48.878914
2022-1353201,153600.0,62.0,AV CLAUDE VELLEFAUX,75010.0,9.0,1.0,2.370665,48.876632
2022-1353201,153600.0,62.0,AV CLAUDE VELLEFAUX,75010.0,10.0,1.0,2.370665,48.876632
2022-1353202,215000.0,8.0,RUE DROUOT,75009.0,23.0,2.0,2.340717,48.872657
2022-1353203,937000.0,27.0,RUE MARBEUF,75008.0,55.0,3.0,2.304234,48.869357
2022-1353204,975400.0,43.0,AV TRUDAINE,75009.0,77.0,4.0,2.341775,48.880708
2022-1353205,305000.0,10.0,RUE GUSTAVE ROUANET,75018.0,41.0,2.0,2.340625,48.896686
2022-1353206,655000.0,50.0,RUE DE LA JUSTICE,75020.0,73.0,3.0,2.408002,48.868237
2022-1353208,1687750.0,237.0,RUE SAINT-DENIS,75002.0,115.0,4.0,2.351423,48.867592
2022-1353209,321000.0,3.0,RUE DU DOBROPOL,75017.0,27.0,1.0,2.28568,48.882418
2022-1353210,410000.0,23.0,RUE SIMART,75018.0,30.0,2.0,2.347426,48.89077
2022-1353211,326000.0,42.0,RUE NOLLET,75017.0,25.0,2.0,2.32277,48.886464
2022-1353212,385000.0,33.0,RUE NOTRE-DAME DE NAZARETH,75003.0,33.0,2.0,2.358309,48.867321
2022-1353213,307750.0,69.0,RUE MARX DORMOY,75018.0,38.0,2.0,2.359112,48.88966
2022-1353214,429000.0,114.0,RUE VIEILLE DU TEMPLE,75003.0,40.0,1.0,2.36347,48.861147
2022-1353217,409600.0,27.0,RUE CLAUZEL,75009.0,35.0,2.0,2.337332,48.879178
2022-1353218,240000.0,45.0,RUE MONTCALM,75018.0,40.0,2.0,2.339225,48.89406
2022-1353220,574150.0,7.0,RUE MARTEL,75010.0,52.0,3.0,2.352636,48.873928
2022-1353222,150000.0,9.0,RUE DE PANAMA,75018.0,12.0,1.0,2.351917,48.8877
2022-1353223,361000.0,62.0,RUE DU FBG SAINT DENIS,75010.0,28.0,2.0,2.354855,48.872335
2022-1353224,1455000.0,31.0,RUE BOISSY D ANGLAS,75008.0,85.0,2.0,2.322095,48.869672
2022-1353225,281400.0,19.0,RUE D HAUTPOUL,75019.0,24.0,1.0,2.388001,48.881545
2022-1353226,193000.0,40.0,RUE GAUTHEY,75017.0,22.0,1.0,2.321627,48.892743
2022-1353227,1030000.0,36.0,AV DE CLICHY,75018.0,103.0,4.0,2.326778,48.885794
2022-1353228,480000.0,35.0,RUE DES MARONITES,75020.0,53.0,3.0,2.384231,48.869706
2022-1353229,1414450.0,4.0,AV DES TERNES,75017.0,117.0,4.0,2.297064,48.878324
2022-1353230,210000.0,52.0,RUE CHAMPIONNET,75018.0,21.0,1.0,2.347709,48.895824
2022-1353231,360500.0,20.0,RUE DU DEBARCADERE,75017.0,37.0,2.0,2.285563,48.878087
2022-1353232,403000.0,32.0,RUE POUCHET,75017.0,43.0,3.0,2.320197,48.893191
2022-1353233,423050.0,7.0,RUE JOUBERT,75009.0,35.0,1.0,2.331867,48.874438
2022-1353234,462500.0,67.0,RUE SAINT BLAISE,75020.0,57.0,4.0,2.409023,48.85728
2022-1353235,710000.0,31.0,RUE DE NAVARIN,75009.0,57.0,3.0,2.337581,48.879787
2022-1353237,274800.0,20.0,RUE SAUFFROY,75017.0,26.0,2.0,2.321158,48.891288
2022-1353238,595500.0,14.0,RUE VINCENT COMPOINT,75018.0,36.0,2.0,2.338617,48.895076
2022-1353239,1272270.0,12.0,RUE DES RENAUDES,75017.0,86.0,4.0,2.300279,48.879335
2022-1353240,400950.0,7.0,RUE DE L AGENT BAILLY,75009.0,42.0,2.0,2.341662,48.878265
2022-1353241,10000.0,25.0,RUE ROYALE,75008.0,30.0,1.0,2.322757,48.869194
2022-1353242,180000.0,125.0,BD MORTIER,75020.0,19.0,1.0,2.408031,48.873089
2022-1353243,843700.0,50.0,RUE TRUFFAUT,75017.0,86.0,4.0,2.321003,48.88648
2022-1353244,665000.0,26.0,BD DES BATIGNOLLES,75017.0,59.0,3.0,2.324602,48.883359
2022-1353245,626800.0,4.0,RUE LEON GIRAUD,75019.0,62.0,3.0,2.381212,48.887095
2022-1353246,436600.0,14.0,RUE DES LIONS SAINT PAUL,75004.0,24.0,1.0,2.361762,48.852986
2022-1353247,404500.0,123.0,RUE SAINT ANTOINE,75004.0,33.0,2.0,2.360161,48.854965
2022-1353248,136000.0,12.0,RUE COMMINES,75003.0,10.0,1.0,2.365951,48.861836
2022-1353249,763500.0,33.0,RUE DE TOCQUEVILLE,75017.0,60.0,2.0,2.311411,48.883697
2022-1353250,317000.0,14.0,RUE M. ELEONORE DE BELLEFOND,75009.0,29.0,2.0,2.347978,48.877871
2022-1353252,505550.0,221.0,RUE LA FAYETTE,75010.0,55.0,2.0,2.365057,48.882214
2022-1353253,739550.0,23.0,RUE M. ELEONORE DE BELLEFOND,75009.0,56.0,3.0,2.346808,48.877718
2022-1353254,340000.0,48.0,RUE DU CHATEAU LANDON,75010.0,33.0,2.0,2.364486,48.88313
2022-1353255,237000.0,52.0,RUE DES ALOUETTES,75019.0,25.0,2.0,2.385977,48.878969
2022-1353256,460000.0,24.0,RUE VIGNON,75009.0,35.0,2.0,2.326677,48.871573
2022-1353258,323000.0,97.0,RUE SAINT-HONORE,75001.0,24.0,1.0,2.343072,48.861132
2022-1353259,163000.0,38.0,RUE LEGENDRE,75017.0,18.0,1.0,2.31517,48.884147
2022-1353260,275000.0,83.0,RUE BOURSAULT,75017.0,28.0,1.0,2.317027,48.886462
2022-1353262,305000.0,97.0,RUE DES MARAICHERS,75020.0,53.0,2.0,2.405165,48.856266
2022-1353263,237410.0,10.0,RUE SAUSSIER LEROY,75017.0,23.0,1.0,2.296551,48.879591
2022-1353265,185700.0,14.0,RUE DE CLICHY,75009.0,21.0,1.0,2.330846,48.878275
2022-1353266,390000.0,95.0,BD BEAUMARCHAIS,75003.0,35.0,2.0,2.367,48.85975
2022-1353267,421000.0,48.0,RUE DE CLIGNANCOURT,75018.0,44.0,2.0,2.34815,48.887488
2022-1353268,600000.0,12.0,RUE BACHAUMONT,75002.0,45.0,2.0,2.345661,48.86626
2022-1353269,298395.72,45.0,RUE DU PRE ST GERVAIS,75019.0,32.0,2.0,2.397201,48.878872
2022-1353270,184915.0,7.0,PAS DU PLATEAU,75019.0,27.0,2.0,2.38496,48.878501
2022-1353271,102000.0,49.0,RUE DE BUZENVAL,75020.0,10.0,1.0,2.401291,48.851691
2022-1353272,130000.0,86.0,RUE DES ARCHIVES,75003.0,9.0,1.0,2.36075,48.863106
2022-1353274,315000.0,55.0,RUE DES RENAUDES,75017.0,28.0,2.0,2.296218,48.881548
2022-1353275,1755800.0,39.0,RUE DE L ARCADE,75008.0,94.0,4.0,2.324222,48.873531
2022-1353276,520000.0,10.0,RUE DU CHATEAU LANDON,75010.0,49.0,3.0,2.362622,48.88014
2022-1353277,324205.0,58.0,RUE RAMEY,75018.0,28.0,2.0,2.345288,48.891438
2022-1353278,340410.0,21.0,RUE AU MAIRE,75003.0,25.0,1.0,2.356259,48.864487
2022-1353279,220000.0,35.0,RUE DE TORCY,75018.0,24.0,1.0,2.360708,48.890755
2022-1353280,279000.0,82.0,RUE DOUDEAUVILLE,75018.0,32.0,1.0,2.350473,48.888673
2022-1353282,300000.0,5.0,RUE CAPLAT,75018.0,9.0,1.0,2.35203,48.884601
2022-1353282,300000.0,5.0,RUE CAPLAT,75018.0,10.0,1.0,2.35203,48.884601
2022-1353282,300000.0,5.0,RUE CAPLAT,75018.0,13.0,1.0,2.35203,48.884601
2022-1353283,389662.0,16.0,RUE VERNIER,75017.0,30.0,2.0,2.291182,48.883487
2022-1353284,350000.0,44.0,RUE BLANCHE,75009.0,20.0,1.0,2.331794,48.879664
2022-1353285,447000.0,5.0,RUE DELOUVAIN,75019.0,37.0,2.0,2.387943,48.875771
2022-1353286,381450.0,54.0,RUE DES GRANDS CHAMPS,75020.0,34.0,1.0,2.403228,48.850772
2022-1353287,6243.0,10.0,RUE DU FBG SAINT DENIS,75010.0,43.0,2.0,2.353229,48.870159
2022-1353289,1322367.0,30.0,RUE VERNIER,75017.0,106.0,5.0,2.291255,48.884481
2022-1353290,450.0,10.0,RUE DU FBG SAINT DENIS,75010.0,14.0,1.0,2.353229,48.870159
2022-1353291,245000.0,49.0,RUE D AMSTERDAM,75008.0,16.0,1.0,2.326696,48.879939
2022-1353292,890000.0,54.0,RUE SAINT-GEORGES,75009.0,67.0,3.0,2.337654,48.877689
2022-1353294,341610.0,74.0,RUE VAUVENARGUES,75018.0,42.0,2.0,2.330194,48.89704
2022-1353295,115000.0,27.0,RUE MARBEUF,75008.0,34.0,1.0,2.304234,48.869357
2022-1353296,109500.0,25.0,RUE DES DAMES,75017.0,12.0,1.0,2.324411,48.884351
2022-1353297,210000.0,6.0,VLA BERTHIER,75017.0,24.0,2.0,2.292792,48.885196
2022-1353299,668836.0,61.0,RUE NOLLET,75017.0,53.0,3.0,2.320594,48.887039
2022-1353300,1787700.0,19.0,VLA AUBLET,75017.0,113.0,4.0,2.295357,48.883204
2022-1353301,165000.0,31.0,RUE TRONCHET,75008.0,25.0,2.0,2.326235,48.873009
2022-1353302,1000.0,39.0,RUE POLONCEAU,75018.0,39.0,3.0,2.351585,48.885867
2022-1353302,1000.0,39.0,RUE POLONCEAU,75018.0,39.0,3.0,2.351585,48.885867
2022-1353303,255000.0,116.0,BD DE CHARONNE,75020.0,29.0,1.0,2.39681,48.854769
2022-1353304,4000.0,39.0,RUE POLONCEAU,75018.0,43.0,3.0,2.351585,48.885867
2022-1353305,570000.0,40.0,RUE D ENGHIEN,75010.0,61.0,2.0,2.349327,48.872577
2022-1353306,771000.0,37.0,RUE DOUDEAUVILLE,75018.0,92.0,4.0,2.354192,48.888191
2022-1353307,567000.0,57.0,RUE PIXERECOURT,75020.0,54.0,3.0,2.395627,48.873307
2022-1353308,692171.0,18.0,RUE DES MARAICHERS,75020.0,65.0,3.0,2.408165,48.849311
2022-1353309,1335000.0,3.0,RUE JACQUES COEUR,75004.0,95.0,5.0,2.366959,48.852157
2022-1353310,67500.0,110.0,RUE DU FBG POISSONNIERE,75010.0,8.0,1.0,2.349589,48.878909
2022-1353311,1568000.0,2.0,PL FRANZ LISZT,75010.0,119.0,5.0,2.35177,48.877461
2022-1353312,185000.0,4.0,VC AB 20,75020.0,17.0,1.0,2.397801,48.857479
2022-1353314,355000.0,79.0,AV JEAN JAURES,75019.0,35.0,2.0,2.378265,48.885258
2022-1353316,220000.0,35.0,RUE DE MOSCOU,75008.0,23.0,1.0,2.321957,48.881921
2022-1353316,220000.0,35.0,RUE DE MOSCOU,75008.0,16.0,1.0,2.321957,48.881921
2022-1353319,575000.0,17.0,RUE SAINT-ROCH,75001.0,57.0,3.0,2.331999,48.865313
2022-1353321,685000.0,47.0,RUE DE CLIGNANCOURT,75018.0,65.0,2.0,2.347229,48.886663
2022-1353322,2146800.0,4.0,RUE DE NAPLES,75008.0,180.0,6.0,2.320925,48.880077
2022-1353323,125000.0,25.0,RUE JOUFFROY D'ABBANS,75017.0,10.0,1.0,2.309999,48.885925
2022-1353324,335000.0,54.0,RUE DES ENVIERGES,75020.0,36.0,2.0,2.388887,48.87234
2022-1353325,72200.0,15.0,RUE M. ELEONORE DE BELLEFOND,75009.0,9.0,1.0,2.347426,48.877473
2022-1353326,325000.0,46.0,RUE DE LA TOUR D AUVERGNE,75009.0,52.0,3.0,2.341332,48.879927
2022-1353327,491000.0,80.0,RUE LAMARCK,75018.0,48.0,2.0,2.33816,48.890214
2022-1353328,485000.0,88.0,BD DE COURCELLES,75017.0,50.0,2.0,2.304577,48.879751
2022-1353330,1049636.0,19.0,RUE BROCHANT,75017.0,77.0,4.0,2.317624,48.888947
2022-1353331,600000.0,32.0,RUE SAINT PAUL,75004.0,83.0,3.0,2.362467,48.853924
2022-1353332,550000.0,27.0,RUE DES AMIRAUX,75018.0,60.0,3.0,2.349772,48.89461
2022-1353333,367950.0,7.0,RUE DU DOCTEUR PAQUELIN,75020.0,35.0,2.0,2.402833,48.869272
2022-1353335,558370.0,21.0,RUE DE LA PLAINE,75020.0,51.0,2.0,2.401669,48.850224
2022-1353336,571550.0,34.0,AV DE CLICHY,75018.0,62.0,3.0,2.327083,48.885825
2022-1353338,244000.0,17.0,RUE ARTHUR GROUSSIER,75010.0,15.0,0.0,2.371135,48.872272
2022-1353338,244000.0,17.0,RUE ARTHUR GROUSSIER,75010.0,23.0,2.0,2.371135,48.872272
2022-1353339,812132.0,11.0,RUE MANSART,75009.0,59.0,2.0,2.332678,48.881792
2022-1353341,250000.0,6.0,RUE DE CASTELLANE,75008.0,32.0,1.0,2.325464,48.872458
2022-1353344,60000.0,57.0,BD DE STRASBOURG,75010.0,6.0,1.0,2.355693,48.873093
2022-1353345,393000.0,68.0,AV DE FLANDRE,75019.0,44.0,2.0,2.375136,48.888664
2022-1353346,285000.0,1.0,RUE CASTEX,75004.0,26.0,2.0,2.3656,48.852542
2022-1353347,200000.0,93.0,RUE DE MAUBEUGE,75010.0,8.0,0.0,2.35309,48.881313
2022-1353347,200000.0,93.0,RUE DE MAUBEUGE,75010.0,15.0,1.0,2.35309,48.881313
2022-1353348,262000.0,24.0,RUE BARON,75017.0,26.0,1.0,2.323428,48.89503
2022-1353349,467600.0,49.0,RUE D ORSEL,75018.0,40.0,2.0,2.340593,48.883144
2022-1353350,205000.0,91.0,RUE CHAMPIONNET,75018.0,25.0,1.0,2.34243,48.895636
2022-1353351,458180.0,19.0,RUE DE TURENNE,75004.0,33.0,2.0,2.363626,48.855847
2022-1353352,217100.0,67.0,RUE DULONG,75017.0,18.0,1.0,2.314884,48.886087
2022-1353353,315000.0,109.0,RUE LEMERCIER,75017.0,26.0,1.0,2.317455,48.889817
2022-1353354,790500.0,6.0,RUE DES DAMES,75017.0,65.0,4.0,2.325643,48.885753
2022-1353355,472500.0,28.0,RUE DE CHAZELLES,75017.0,36.0,1.0,2.306436,48.880624
2022-1353356,720000.0,4.0,RUE DAUTANCOURT,75017.0,58.0,4.0,2.323738,48.888911
2022-1353357,335000.0,15.0,RUE DULONG,75017.0,27.0,2.0,2.31722,48.883865
2022-1353358,400000.0,20.0,RUE CHAUDRON,75010.0,43.0,2.0,2.365118,48.883634
2022-1353359,330000.0,30.0,RUE CALMELS PROLONGEE,75018.0,30.0,1.0,2.337958,48.893812
2022-1353360,707000.0,46.0,BD DE STRASBOURG,75010.0,60.0,2.0,2.35692,48.872861
2022-1353361,643000.0,6.0,RUE DES ANNELETS,75019.0,61.0,3.0,2.389802,48.877372
2022-1353362,427950.0,21.0,RUE DAUTANCOURT,75017.0,39.0,2.0,2.324561,48.890018
2022-1353363,294500.0,5.0,RUE DE THIONVILLE,75019.0,29.0,1.0,2.381469,48.888674
2022-1353364,355200.0,1.0,RUE DES GATINES,75020.0,30.0,2.0,2.39701,48.865287
2022-1353367,536000.0,25.0,RUE POUCHET,75017.0,48.0,2.0,2.319207,48.892973
2022-1353368,205000.0,42.0,RUE DOUDEAUVILLE,75018.0,25.0,2.0,2.354865,48.888791
2022-1353369,490000.0,21.0,RUE MOLIERE,75001.0,38.0,2.0,2.336015,48.865546
2022-1353370,675000.0,114.0,RUE NOLLET,75017.0,70.0,3.0,2.317831,48.889317
2022-1353371,308000.0,14.0,RUE DARU,75008.0,24.0,1.0,2.302572,48.877774
2022-1353372,155100.0,1.0,RUE DE L ADJUDANT REAU,75020.0,15.0,1.0,2.405022,48.867372
2022-1353373,300000.0,20.0,RUE VAUVENARGUES,75018.0,34.0,1.0,2.333727,48.893556
2022-1353374,71000.0,342.0,RUE DES PYRENEES,75020.0,7.0,1.0,2.388517,48.874112
2022-1353375,79000.0,43.0,RUE SAINTE-ANNE,75001.0,4.0,1.0,2.335481,48.866631
2022-1353376,324230.0,69.0,RUE MARCADET,75018.0,31.0,2.0,2.347974,48.890089
2022-1353378,367800.0,204.0,RUE DE CRIMEE,75019.0,43.0,2.0,2.375571,48.892174
2022-1353381,613500.0,24.0,RUE DES DAMES,75017.0,47.0,3.0,2.324258,48.884814
2022-1353384,1200000.0,9.0,RUE CATULLE MENDES,75017.0,129.0,5.0,2.290919,48.886454
2022-1353386,710000.0,30.0,RUE DE LA JUSTICE,75020.0,71.0,3.0,2.407421,48.868926
2022-1353387,864550.0,56.0,RUE D AMSTERDAM,75009.0,70.0,4.0,2.327231,48.879476
2022-1353388,305000.0,12.0,RUE DE LA CHINE,75020.0,31.0,2.0,2.399218,48.867387
2022-1353389,565000.0,11.0,RUE DU RHIN,75019.0,64.0,5.0,2.381841,48.884442
2022-1353391,427350.0,26.0,RUE DE RIVOLI,75004.0,35.0,1.0,2.358237,48.856081
2022-1353392,280000.0,140.0,AV DE SAINT OUEN,75018.0,30.0,2.0,2.328887,48.896395
2022-1353393,25000.0,128.0,RUE DU MONT CENIS,75018.0,58.0,2.0,2.347634,48.897186
2022-1353395,620000.0,61.0,RUE CHARLOT,75003.0,48.0,2.0,2.363311,48.863793
2022-1353396,325000.0,4.0,PAS DE MELUN,75019.0,37.0,1.0,2.37577,48.883701
2022-1353397,544300.0,4.0,VLA COMPOINT,75017.0,46.0,2.0,2.323642,48.891834
2022-1353398,866390.0,3.0,RUE SORBIER,75020.0,27.0,2.0,2.390251,48.868415
2022-1353398,866390.0,3.0,RUE SORBIER,75020.0,27.0,2.0,2.390251,48.868415
2022-1353400,727000.0,71.0,RUE DE CHABROL,75010.0,68.0,3.0,2.349861,48.877098
2022-1353401,193000.0,14.0,RUE FESSART,75019.0,28.0,2.0,2.387123,48.876572
2022-1353402,354690.0,20.0,RUE LEON,75018.0,23.0,1.0,2.353698,48.887955
2022-1353402,354690.0,20.0,RUE LEON,75018.0,23.0,1.0,2.353698,48.887955
2022-1353403,390000.0,19.0,RUE CLAVEL,75019.0,33.0,2.0,2.383908,48.875121
2022-1353404,1700000.0,5.0,RUE ROBERT ESTIENNE,75008.0,94.0,3.0,2.305318,48.868833
2022-1353405,55000.0,3.0,RUE QUENTIN BAUCHART,75008.0,31.0,2.0,2.299249,48.869074
2022-1353407,776000.0,126.0,RUE CHAMPIONNET,75018.0,80.0,3.0,2.338038,48.895588
2022-1353408,715000.0,43.0,RUE BROCHANT,75017.0,58.0,2.0,2.319474,48.890426
2022-1353409,926950.0,15.0,AV RACHEL,75018.0,88.0,4.0,2.330598,48.885034
2022-1353410,350000.0,73.0,RUE DAMREMONT,75018.0,37.0,2.0,2.335689,48.89296
2022-1353411,400000.0,92.0,RUE MYRHA,75018.0,36.0,3.0,2.348352,48.886522
2022-1353412,569885.0,29.0,RUE PAJOL,75018.0,53.0,2.0,2.361187,48.887652
2022-1353413,911200.0,11.0,RUE JEAN MERMOZ,75008.0,75.0,3.0,2.311265,48.871131
2022-1353414,273500.0,10.0,RUE GUSTAVE ROUANET,75018.0,27.0,2.0,2.340625,48.896686
2022-1353415,710000.0,55.0,AV JEAN JAURES,75019.0,78.0,4.0,2.375535,48.884625
2022-1353416,150000.0,17.0,RUE MARC SEGUIN,75018.0,19.0,0.0,2.363122,48.891801
2022-1353418,188000.0,135.0,BD DAVOUT,75020.0,19.0,1.0,2.409404,48.858276
2022-1353419,300750.0,17.0,RUE PIERRE FONTAINE,75009.0,28.0,2.0,2.33403,48.881414
2022-1353420,194500.0,42.0,AV MATHURIN MOREAU,75019.0,18.0,1.0,2.375554,48.878369
2022-1353421,130000.0,8.0,RUE VALENCIENNES,75010.0,8.0,1.0,2.355034,48.878449
2022-1353422,165000.0,31.0,RUE DE L ECHIQUIER,75010.0,19.0,1.0,2.350121,48.87141
2022-1353423,178600.0,50.0,RUE DOUDEAUVILLE,75018.0,22.0,1.0,2.353936,48.888733
2022-1353424,328545.1,131.0,RUE DE BAGNOLET,75020.0,35.0,2.0,2.405112,48.861851
2022-1353426,205000.0,48.0,QUAI DE JEMMAPES,75010.0,17.0,1.0,2.367589,48.870641
2022-1353427,384000.0,95.0,RUE DUHESME,75018.0,38.0,1.0,2.344345,48.894989
2022-1353428,317000.0,19.0,RUE DES CHAUFOURNIERS,75019.0,30.0,1.0,2.373317,48.878683
2022-1353429,916030.0,145.0,RUE PELLEPORT,75020.0,122.0,4.0,2.397534,48.873743
2022-1353430,495000.0,10.0,RUE DE ROCHECHOUART,75009.0,44.0,3.0,2.345008,48.877038
2022-1353431,800000.0,27.0,RUE DU BOURG TIBOURG,75004.0,67.0,2.0,2.356165,48.85757
2022-1353432,557400.0,15.0,RUE DU MONT-DORE,75017.0,39.0,2.0,2.32265,48.883394
2022-1353434,169000.0,56.0,RUE DU FBG SAINT DENIS,75010.0,10.0,1.0,2.35444,48.8723
2022-1353435,359000.0,85.0,RUE DE MENILMONTANT,75020.0,32.0,1.0,2.390178,48.868938
2022-1353436,220000.0,42.0,RUE DE MIROMESNIL,75008.0,25.0,2.0,2.316046,48.874155
2022-1353438,172000.0,17.0,RUE DE NANTES,75019.0,18.0,1.0,2.38201,48.891578
2022-1353439,420000.0,103.0,RUE DAMREMONT,75018.0,27.0,2.0,2.337093,48.895028
2022-1353440,322550.0,74.0,RUE MYRHA,75018.0,34.0,2.0,2.350319,48.886979
2022-1353441,732200.0,9.0,RUE HASSARD,75019.0,73.0,3.0,2.383235,48.878771
2022-1353442,695000.0,57.0,RUE PIXERECOURT,75020.0,55.0,3.0,2.395627,48.873307
2022-1353443,365000.0,5.0,RUE CAIL,75010.0,61.0,3.0,2.36114,48.882469
2022-1353444,737300.0,78.0,BD BARBES,75018.0,77.0,3.0,2.349929,48.88986
2022-1353445,305000.0,93.0,RUE ORDENER,75018.0,31.0,2.0,2.347156,48.891796
2022-1353446,341000.0,7.0,RUE GEORGETTE AGUTTE,75018.0,36.0,1.0,2.332337,48.894965
2022-1353450,375000.0,3.0,RUE SAINTE ELISABETH,75003.0,32.0,1.0,2.359241,48.865857
2022-1353451,320700.0,19.0,RUE DE LIEGE,75009.0,30.0,1.0,2.327211,48.879524
2022-1353453,382000.0,23.0,RUE CHAPPE,75018.0,32.0,2.0,2.341745,48.885283
2022-1353455,583040.0,32.0,RUE DU SOLEIL,75020.0,75.0,3.0,2.395122,48.873503
2022-1353457,430000.0,55.0,RUE DE PROVENCE,75009.0,35.0,2.0,2.334603,48.874036
2022-1353458,934850.0,5.0,RUE TROYON,75017.0,73.0,3.0,2.295343,48.875842
2022-1353459,5000.0,19.0,RUE PIERRE LESCOT,75001.0,52.0,3.0,2.348739,48.863462
2022-1353462,357000.0,57.0,RUE ETIENNE MAREY,75020.0,48.0,2.0,2.40527,48.868789
2022-1353463,42000.0,26.0,RUE DU CHATEAU LANDON,75010.0,8.0,1.0,2.363313,48.881662
2022-1353464,600000.0,68.0,RUE BELGRAND,75020.0,88.0,4.0,2.406691,48.864374
2022-1353465,553000.0,76.0,RUE DE LA JONQUIERE,75017.0,59.0,3.0,2.320476,48.89448
2022-1353466,480000.0,41.0,QUAI DE L OISE,75019.0,51.0,3.0,2.385375,48.892567
2022-1353467,512000.0,1.0,RUE CUSTINE,75018.0,47.0,3.0,2.34912,48.887266
2022-1353468,587000.0,135.0,RUE MARCADET,75018.0,45.0,2.0,2.34077,48.891114
2022-1353469,120000.0,28.0,RUE PIAT,75020.0,18.0,1.0,2.385298,48.872041
2022-1353471,609000.0,43.0,RUE DE SAINTONGE,75003.0,58.0,3.0,2.363575,48.863
2022-1353472,385000.0,17.0,RUE PELLEPORT,75020.0,39.0,2.0,2.404486,48.862617
2022-1353473,245000.0,58.0,RUE D AVRON,75020.0,28.0,2.0,2.403376,48.851663
2022-1353475,406150.0,38.0,RUE DURANTIN,75018.0,30.0,2.0,2.335439,48.886774
2022-1353476,4250000.0,99.0,BD MALESHERBES,75008.0,273.0,7.0,2.314225,48.878897
2022-1353477,395000.0,83.0,RUE DE BUZENVAL,75020.0,45.0,3.0,2.399827,48.853797
2022-1353478,399000.0,89.0,RUE MYRHA,75018.0,45.0,3.0,2.348196,48.886273
2022-1353480,1740000.0,84.0,RUE DE MONCEAU,75008.0,128.0,7.0,2.316285,48.880128
2022-1353481,610000.0,27.0,RUE CLAVEL,75019.0,62.0,3.0,2.383055,48.876113
2022-1353482,272800.0,9.0,RUE BOUCRY,75018.0,31.0,2.0,2.362193,48.893639
2022-1353483,220000.0,70.0,RUE DES PRAIRIES,75020.0,24.0,1.0,2.401109,48.863905
2022-1353484,236000.0,1.0,RUE ALEXANDRE PARODI,75010.0,24.0,2.0,2.366295,48.87918
2022-1353486,4000.0,42.0,RUE RICHER,75009.0,79.0,3.0,2.343992,48.874265
2022-1353488,871200.0,12.0,RUE NOTRE-DAME DE LORETTE,75009.0,68.0,4.0,2.338657,48.877621
2022-1353489,1615000.0,52.0,RUE DE ROME,75008.0,141.0,5.0,2.322357,48.879181
2022-1353490,175000.0,18.0,RUE FOURCROY,75017.0,13.0,1.0,2.298357,48.880893
2022-1353491,727780.0,12.0,PAS DOISY,75017.0,59.0,3.0,2.291814,48.878272
2022-1353492,1125090.0,16.0,RUE CARPEAUX,75018.0,111.0,4.0,2.333029,48.891486
2022-1353493,395000.0,4.0,RUE ELYSEE MENILMONTANT,75020.0,84.0,4.0,2.38635,48.868932
2022-1353494,512500.0,33.0,RUE CHARLOT,75003.0,38.0,2.0,2.361699,48.862637
2022-1353496,1420000.0,34.0,RUE DE MONTHOLON,75009.0,129.0,5.0,2.34484,48.876753
2022-1353497,250000.0,8.0,RUE AUGER,75020.0,30.0,2.0,2.399414,48.850911
2022-1353499,267500.0,42.0,RUE MANIN,75019.0,32.0,1.0,2.391776,48.884194
2022-1353500,962680.0,48.0,RUE LEMERCIER,75017.0,90.0,4.0,2.322502,48.887473
2022-1353502,302400.0,52.0,RUE GRENETA,75002.0,26.0,1.0,2.34816,48.865622
2022-1353503,19619000.0,16.0,RUE GUILLAUME TELL,75017.0,120.0,4.0,2.29406,48.8841
2022-1353503,19619000.0,16.0,RUE GUILLAUME TELL,75017.0,119.0,4.0,2.29406,48.8841
2022-1353505,495000.0,34.0,RUE DULONG,75017.0,42.0,3.0,2.317216,48.884627
2022-1353506,667200.0,44.0,RUE DE TURENNE,75003.0,48.0,2.0,2.364673,48.857803
2022-1353507,1140000.0,152.0,RUE SAUSSURE,75017.0,104.0,4.0,2.306456,48.889942
2022-1353508,525000.0,30.0,RUE DES ACACIAS,75017.0,47.0,3.0,2.291867,48.876708
2022-1353509,110000.0,36.0,RUE DE LORRAINE,75019.0,13.0,1.0,2.381773,48.886723
2022-1353510,360000.0,8.0,RUE MARX DORMOY,75018.0,35.0,2.0,2.359741,48.885343
2022-1353511,433100.0,73.0,RUE DE BAGNOLET,75020.0,43.0,1.0,2.399808,48.858197
2022-1353512,318000.0,18.0,RUE DE BELZUNCE,75010.0,26.0,2.0,2.351377,48.879677
2022-1353513,215000.0,8.0,RUE AUGER,75020.0,26.0,2.0,2.399414,48.850911
2022-1353514,172500.0,101.0,RUE DE MEAUX,75019.0,16.0,1.0,2.377249,48.884119
2022-1353515,451000.0,6.0,RUE ANDRE GILL,75018.0,39.0,1.0,2.340197,48.882723
2022-1353516,360000.0,35.0,RUE DE MEAUX,75019.0,36.0,2.0,2.372162,48.88031
2022-1353517,267000.0,60.0,RUE DE ROCHECHOUART,75009.0,22.0,1.0,2.347101,48.880469
2022-1353518,430000.0,22.0,BD DE BELLEVILLE,75020.0,47.0,2.0,2.382962,48.8683
2022-1353519,220000.0,26.0,RUE POUCHET,75017.0,25.0,2.0,2.319835,48.892823
2022-1353520,235400.0,2.0,RUE DE SUEZ,75018.0,30.0,2.0,2.352424,48.88762
2022-1353521,144450.0,10.0,RUE DE NANTES,75019.0,18.0,2.0,2.383049,48.891608
2022-1353522,330800.0,54.0,RUE GUY MOQUET,75017.0,31.0,2.0,2.32538,48.89241
2022-1353523,419500.0,13.0,RUE LISFRANC,75020.0,45.0,2.0,2.402462,48.862288
2022-1353524,1290000.0,21.0,RUE DU COLONEL MOLL,75017.0,119.0,4.0,2.289928,48.877744
2022-1353525,310000.0,3.0,VLA DE GUELMA,75018.0,32.0,2.0,2.336907,48.882977
2022-1353526,694070.0,24.0,RUE TURGOT,75009.0,57.0,3.0,2.345207,48.881303
2022-1353528,133500.0,9.0,RUE DES DEUX GARES,75010.0,12.0,1.0,2.357427,48.878216
2022-1353529,317308.0,6.0,RUE DE LA MARSEILLAISE,75019.0,55.0,3.0,2.398403,48.888244
2022-1353530,104530.0,48.0,RUE DU COLISEE,75008.0,12.0,1.0,2.311651,48.871803
2022-1353531,482840.0,64.0,RUE DE L AQUEDUC,75010.0,45.0,2.0,2.365615,48.883006
2022-1353532,495000.0,7.0,RUE LAMANDE,75017.0,42.0,2.0,2.319707,48.886177
2022-1353533,285700.0,221.0,RUE LA FAYETTE,75010.0,31.0,1.0,2.365057,48.882214
2022-1353534,522000.0,16.0,RUE PIXERECOURT,75020.0,61.0,3.0,2.395793,48.870967
2022-1353536,196400.0,11.0,RUE FENELON,75010.0,21.0,1.0,2.351201,48.878879
2022-1353537,387450.0,52.0,RUE SAINT FARGEAU,75020.0,46.0,2.0,2.406764,48.871907
2022-1353538,554750.0,25.0,RUE FRANCOEUR,75018.0,41.0,3.0,2.340625,48.890598
2022-1353539,207000.0,13.0,RUE DE LA FELICITE,75017.0,26.0,2.0,2.309654,48.886876
2022-1353541,556600.0,16.0,BD DES BATIGNOLLES,75017.0,67.0,3.0,2.325584,48.883385
2022-1353542,299000.0,3.0,RUE CAMILLE TAHAN,75018.0,34.0,2.0,2.328677,48.886863
2022-1353543,618000.0,12.0,RUE COMMINES,75003.0,42.0,3.0,2.365951,48.861836
2022-1353544,300000.0,73.0,RUE DULONG,75017.0,20.0,1.0,2.314572,48.886312
2022-1353545,1713000.0,41.0,RUE D AMSTERDAM,75008.0,138.0,5.0,2.326644,48.879218
2022-1353546,395500.0,107.0,RUE DU MONT CENIS,75018.0,35.0,2.0,2.345265,48.8946
2022-1353547,240000.0,9.0,PAS SAINTE AVOIE,75003.0,17.0,1.0,2.355875,48.860592
2022-1353548,355000.0,33.0,RUE MARC SEGUIN,75018.0,36.0,3.0,2.36082,48.891858
2022-1353549,400000.0,104.0,RUE DE RICHELIEU,75002.0,32.0,1.0,2.340274,48.871079
2022-1353550,752000.0,72.0,BD DE LA VILLETTE,75019.0,82.0,4.0,2.373697,48.87595
2022-1353551,145000.0,20.0,RUE CHAUDRON,75010.0,14.0,1.0,2.365118,48.883634
2022-1353552,94564.0,7.0,RUE DE L ECHIQUIER,75010.0,10.0,1.0,2.352475,48.871026
2022-1353553,363000.0,89.0,RUE DES PYRENEES,75020.0,36.0,2.0,2.40454,48.854302
2022-1353554,300000.0,100.0,RUE ORFILA,75020.0,42.0,2.0,2.399905,48.867532
2022-1353555,1243500.0,10.0,RUE ALFRED ROLL,75017.0,135.0,3.0,2.300611,48.887819
2022-1353556,428400.0,51.0,RUE RAMUS,75020.0,42.0,2.0,2.397985,48.863089
2022-1353557,314800.0,9.0,RUE DE ROCHECHOUART,75009.0,26.0,2.0,2.344208,48.877128
2022-1353559,400000.0,83.0,RUE DE ROCHECHOUART,75009.0,37.0,2.0,2.346408,48.88243
2022-1353561,237000.0,36.0,RUE DE LORRAINE,75019.0,27.0,1.0,2.381773,48.886723
2022-1353562,1005300.0,33.0,RUE DES ALOUETTES,75019.0,113.0,5.0,2.385205,48.878511
2022-1353563,415000.0,6.0,RUE CATULLE MENDES,75017.0,38.0,2.0,2.291886,48.886697
2022-1353564,220000.0,30.0,RUE MYRHA,75018.0,22.0,2.0,2.353924,48.88738
2022-1353566,330000.0,71.0,RUE LAUGIER,75017.0,45.0,2.0,2.292022,48.884138
2022-1353567,470000.0,8.0,RUE DE TRETAIGNE,75018.0,44.0,3.0,2.342383,48.891647
2022-1353568,252000.0,5.0,RUE SEVESTE,75018.0,50.0,3.0,2.344614,48.883596
2022-1353569,1160000.0,21.0,RUE MONTMARTRE,75001.0,83.0,3.0,2.344925,48.864625
2022-1353570,244500.0,30.0,RUE DU FBG ST MARTIN,75010.0,24.0,1.0,2.356378,48.870022
2022-1353571,395000.0,24.0,RUE DUHESME,75018.0,29.0,1.0,2.339214,48.890897
2022-1353572,532000.0,54.0,RUE DE LA PY,75020.0,43.0,3.0,2.404507,48.866098
2022-1353573,242000.0,11.0,RUE PIERRE FONTAINE,75009.0,22.0,1.0,2.334178,48.881143
2022-1353574,333000.0,131.0,BD NEY,75018.0,42.0,2.0,2.332452,48.897409
2022-1353575,230000.0,14.0,RUE TESSON,75010.0,22.0,1.0,2.372024,48.871116
2022-1353576,710000.0,60.0,RUE DU CHATEAU D EAU,75010.0,76.0,3.0,2.356412,48.872307
2022-1353577,528000.0,22.0,RUE VICQ D AZIR,75010.0,55.0,2.0,2.371308,48.875643
2022-1353578,455000.0,136.0,RUE DES PYRENEES,75020.0,51.0,3.0,2.40272,48.858928
2022-1353579,429000.0,49.0,RUE CUSTINE,75018.0,25.0,2.0,2.343788,48.889295
2022-1353580,325000.0,39.0,RUE DES MONTIBOEUFS,75020.0,36.0,2.0,2.403961,48.866973
2022-1353581,895000.0,146.0,BD DE MENILMONTANT,75020.0,52.0,2.0,2.383889,48.866758
2022-1353581,895000.0,146.0,BD DE MENILMONTANT,75020.0,52.0,3.0,2.383889,48.866758
2022-1353582,425000.0,24.0,RUE D ORSEL,75018.0,39.0,2.0,2.343919,48.884034
2022-1353583,415000.0,41.0,RUE COQUILLIERE,75001.0,25.0,1.0,2.34065,48.864499
2022-1353584,600000.0,16.0,AV DE WAGRAM,75008.0,40.0,1.0,2.29737,48.875819
2022-1353585,1346700.0,17.0,RUE DE BERNE,75008.0,110.0,4.0,2.322972,48.880838
2022-1353589,328000.0,28.0,RUE BEAUBOURG,75003.0,24.0,1.0,2.354201,48.861762
2022-1353590,798300.0,60.0,RUE DU CHATEAU D EAU,75010.0,50.0,3.0,2.356412,48.872307
2022-1353591,185000.0,5.0,RUE JEAN LECLAIRE,75017.0,17.0,1.0,2.325247,48.893921
2022-1353592,215000.0,11.0,RUE MONTCALM,75018.0,21.0,1.0,2.336128,48.892483
2022-1353593,280000.0,170.0,AV PARMENTIER,75010.0,28.0,1.0,2.370173,48.872065
2022-1353594,578300.0,5.0,RUE DES FILLES DU CALVAIRE,75003.0,36.0,3.0,2.365014,48.86245
2022-1353595,928775.0,135.0,RUE DE BELLEVILLE,75019.0,83.0,3.0,2.388846,48.87518
2022-1353597,436200.0,5.0,RUE ORFILA,75020.0,40.0,2.0,2.394843,48.865731
2022-1353598,183300.0,38.0,RUE VILLIERS ISLE ADAM,75020.0,30.0,2.0,2.395447,48.866389
2022-1353600,1950000.0,5.0,RUE HOUDON,75018.0,26.0,2.0,2.337988,48.882877
2022-1353600,1950000.0,5.0,RUE HOUDON,75018.0,25.0,2.0,2.337988,48.882877
2022-1353601,486850.0,96.0,RUE GEORGES LARDENNOIS,75019.0,35.0,2.0,2.376599,48.876824
2022-1353602,643500.0,27.0,AV SECRETAN,75019.0,65.0,3.0,2.37288,48.881669
2022-1353603,292000.0,4.0,RUE DU TUNNEL,75019.0,30.0,1.0,2.38536,48.87909
2022-1353604,650000.0,47.0,RUE GUERSANT,75017.0,71.0,3.0,2.287541,48.882501
2022-1353605,195000.0,55.0,RUE DES POISSONNIERS,75018.0,23.0,2.0,2.351249,48.889914
2022-1353606,371429.0,9.0,AV DE LAUMIERE,75019.0,35.0,2.0,2.380742,48.883089
2022-1353607,625000.0,2.0,VLA DES NYMPHEAS,75020.0,72.0,3.0,2.407757,48.869582
2022-1353608,421000.0,22.0,RUE DOUDEAUVILLE,75018.0,48.0,3.0,2.356648,48.889069
2022-1353609,463000.0,51.0,RUE ARCHEREAU,75019.0,51.0,2.0,2.374549,48.89224
2022-1353612,285000.0,72.0,QUAI DE LA LOIRE,75019.0,25.0,1.0,2.377729,48.886414
2022-1353614,420000.0,16.0,RUE DE JOINVILLE,75019.0,50.0,2.0,2.379815,48.890269
2022-1353615,662000.0,24.0,RUE RODIER,75009.0,48.0,3.0,2.342978,48.878422
2022-1353616,1801550.0,12.0,RUE SAINTE-ANNE,75001.0,130.0,5.0,2.335646,48.865817
2022-1353617,247000.0,26.0,RUE DES TROIS FRERES,75018.0,30.0,2.0,2.341015,48.884959
2022-1353618,1200000.0,12.0,RUE DU FBG POISSONNIERE,75010.0,98.0,3.0,2.348335,48.871547
2022-1353619,460000.0,20.0,RUE DE LA LIBERTE,75019.0,10.0,1.0,2.393344,48.880964
2022-1353619,460000.0,20.0,RUE DE LA LIBERTE,75019.0,50.0,3.0,2.393344,48.880964
2022-1353620,475000.0,2.0,RUE CLAUDE POUILLET,75017.0,35.0,2.0,2.315759,48.883514
2022-1353621,350000.0,12.0,RUE BOUCRY,75018.0,38.0,3.0,2.362278,48.894145
2022-1353622,332500.0,16.0,RUE LUCIEN SAMPAIX,75010.0,26.0,1.0,2.360901,48.87189
2022-1353623,1497000.0,53.0,RUE DE CLICHY,75009.0,16.0,1.0,2.328407,48.880774
2022-1353623,1497000.0,53.0,RUE DE CLICHY,75009.0,113.0,4.0,2.328407,48.880774
2022-1353624,572600.0,12.0,RUE ST MATHIEU,75018.0,57.0,2.0,2.354579,48.886405
2022-1353625,451000.0,8.0,RUE EUGENE SUE,75018.0,29.0,2.0,2.346355,48.890778
2022-1353625,451000.0,8.0,RUE EUGENE SUE,75018.0,25.0,2.0,2.346355,48.890778
2022-1353626,600000.0,181.0,RUE LA FAYETTE,75010.0,6.0,1.0,2.359984,48.880265
2022-1353626,600000.0,181.0,RUE LA FAYETTE,75010.0,63.0,3.0,2.359984,48.880265
2022-1353627,230000.0,17.0,RUE VINCENT COMPOINT,75018.0,18.0,2.0,2.33843,48.89576
2022-1353628,887000.0,27.0,RUE YVES TOUDIC,75010.0,64.0,4.0,2.362656,48.870973
2022-1353629,525000.0,15.0,RUE PERDONNET,75010.0,68.0,3.0,2.360545,48.883844
2022-1353630,641400.0,200.0,QUAI DE JEMMAPES,75010.0,56.0,2.0,2.369409,48.880528
2022-1353631,260000.0,1.0,VLA ALBERT ROBIDA,75019.0,28.0,2.0,2.390756,48.878909
2022-1353632,325000.0,23.0,RUE DE BELLEVILLE,75019.0,35.0,1.0,2.378642,48.872992
2022-1353633,631450.0,116.0,RUE LAMARCK,75018.0,54.0,2.0,2.334002,48.890785
2022-1353634,213682.0,135.0,RUE DU FBG DU TEMPLE,75010.0,24.0,2.0,2.376023,48.872035
2022-1353635,170000.0,43.0,RUE MARX DORMOY,75018.0,28.0,2.0,2.359316,48.887456
2022-1353636,785250.0,51.0,RUE MONTCALM,75018.0,71.0,3.0,2.340074,48.894623
2022-1353637,855000.0,52.0,RUE RAMUS,75020.0,92.0,4.0,2.398657,48.863337
2022-1353638,100000.0,3.0,RUE BUZELIN,75018.0,20.0,1.0,2.363557,48.890166
2022-1353639,971532.0,8.0,RUE ALFRED STEVENS,75009.0,73.0,4.0,2.338834,48.881856
2022-1353640,275000.0,98.0,RUE DE LA CHAPELLE,75018.0,50.0,2.0,2.360047,48.897635
2022-1353641,180000.0,22.0,AV DE FLANDRE,75019.0,36.0,2.0,2.370821,48.885325
2022-1353641,180000.0,22.0,AV DE FLANDRE,75019.0,26.0,1.0,2.370821,48.885325
2022-1353642,682000.0,40.0,RUE SAINT PAUL,75004.0,45.0,3.0,2.362793,48.854305
2022-1353643,134444.44,52.0,RUE DE MAUBEUGE,75009.0,119.0,4.0,2.345931,48.878419
2022-1353644,415000.0,5.0,PAS DELESSERT,75010.0,40.0,2.0,2.365172,48.878782
2022-1353645,529000.0,2.0,PAS DU MARCHE,75010.0,47.0,3.0,2.357795,48.870973
2022-1353646,635000.0,9.0,RUE ROGER BACON,75017.0,64.0,2.0,2.289491,48.882852
2022-1353648,459000.0,90.0,RUE DE L OURCQ,75019.0,50.0,2.0,2.374471,48.894044
2022-1353649,341763.0,8.0,RUE JULES DUMIEN,75020.0,34.0,2.0,2.401223,48.869395
2022-1353650,370000.0,59.0,RUE AU MAIRE,75003.0,24.0,1.0,2.354484,48.864766
2022-1353651,295000.0,128.0,RUE DE COURCELLES,75017.0,24.0,3.0,2.301483,48.881148
2022-1353652,175000.0,25.0,RUE DES AMIRAUX,75018.0,19.0,2.0,2.349843,48.89467
2022-1353653,235000.0,5.0,RUE FRAGONARD,75017.0,20.0,1.0,2.31499,48.894441
2022-1353654,395100.0,83.0,RUE VAUVENARGUES,75018.0,46.0,2.0,2.329328,48.897296
2022-1353655,235000.0,69.0,RUE GRENETA,75002.0,18.0,1.0,2.347421,48.865526
2022-1353656,148000.0,19.0,RUE LUCIEN SAMPAIX,75010.0,13.0,1.0,2.360303,48.872398
2022-1353657,315000.0,106.0,BD PEREIRE,75017.0,35.0,1.0,2.298377,48.886159
2022-1353659,615000.0,76.0,AV DES CHAMPS ELYSEES,75008.0,37.0,1.0,2.304678,48.871669
2022-1353660,335000.0,137.0,RUE PELLEPORT,75020.0,38.0,1.0,2.397383,48.872912
2022-1353661,559400.0,59.0,RUE JEAN-BAPTISTE PIGALLE,75009.0,48.0,2.0,2.335734,48.881139
2022-1353662,186000.0,13.0,RUE LEON GIRAUD,75019.0,18.0,1.0,2.382425,48.887899
2022-1353663,300000.0,4.0,RUE HENRI DUBOUILLON,75020.0,39.0,2.0,2.404403,48.872755
2022-1353664,255000.0,9.0,RUE COURAT,75020.0,24.0,1.0,2.405273,48.85709
2022-1353665,757000.0,5.0,RUE FOREST,75018.0,80.0,4.0,2.329148,48.885065
2022-1353666,280295.0,63.0,RUE BOURSAULT,75017.0,42.0,2.0,2.31811,48.885532
2022-1353667,261500.0,4.0,SQ PETRELLE,75009.0,30.0,2.0,2.34924,48.880788
2022-1353668,650000.0,48.0,RUE D ENGHIEN,75010.0,138.0,5.0,2.348681,48.872485
2022-1353669,654000.0,35.0,RUE DE FONTARABIE,75020.0,84.0,4.0,2.401826,48.85838
2022-1353670,162000.0,68.0,RUE DE L AQUEDUC,75010.0,13.0,1.0,2.366231,48.883212
2022-1353671,460000.0,11.0,RUE DE PARME,75009.0,50.0,2.0,2.327429,48.881131
2022-1353673,2380000.0,81.0,AV DE VILLIERS,75017.0,256.0,7.0,2.303256,48.883692
2022-1353674,350000.0,14.0,RUE CHARLES NODIER,75018.0,25.0,1.0,2.34522,48.885692
2022-1353676,289350.0,14.0,RUE DE GRANGE BATELIERE,75009.0,20.0,1.0,2.341507,48.873384
2022-1353677,4000.0,19.0,BD DE COURCELLES,75008.0,178.0,5.0,2.314825,48.880719
2022-1353678,109000.0,1.0,RUE BORDA,75003.0,12.0,1.0,2.357437,48.866001
2022-1353679,188000.0,9.0,RUE DES VIGNOLES,75020.0,29.0,1.0,2.398178,48.853413
2022-1353680,280000.0,38.0,RUE DU SOLEIL,75020.0,36.0,2.0,2.395606,48.873902
2022-1353681,83125.0,212.0,RUE MARCADET,75018.0,28.0,2.0,2.33375,48.891949
2022-1353682,550805.0,33.0,RUE GABRIELLE,75018.0,40.0,3.0,2.339865,48.885848
2022-1353683,4000.0,19.0,BD DE COURCELLES,75008.0,214.0,4.0,2.314825,48.880719
2022-1353685,823800.0,22.0,RUE DE L ECHIQUIER,75010.0,75.0,3.0,2.351178,48.871546
2022-1353686,430000.0,54.0,RUE LEGENDRE,75017.0,36.0,2.0,2.316047,48.884992
2022-1353687,531900.0,57.0,RUE DES MOINES,75017.0,43.0,1.0,2.320916,48.890786
2022-1353688,765000.0,18.0,RUE ST VINCENT DE PAUL,75010.0,80.0,5.0,2.352731,48.881092
2022-1353689,362380.0,112.0,RUE TRUFFAUT,75017.0,30.0,2.0,2.316919,48.888921
2022-1353690,285000.0,4.0,RUE DE LA PLAINE,75020.0,25.0,2.0,2.399772,48.849459
2022-1353691,500000.0,24.0,RUE D AUMALE,75009.0,46.0,2.0,2.335233,48.878792
2022-1353692,510000.0,9.0,RUE DU MONT-DORE,75017.0,45.0,3.0,2.322679,48.883155
2022-1353693,35000.0,50.0,AV DES TERNES,75017.0,31.0,2.0,2.292671,48.879464
2022-1353695,417500.0,48.0,RUE DE TURENNE,75003.0,32.0,1.0,2.364704,48.857997
2022-1353697,474450.0,3.0,PL EMILE LANDRIN,75020.0,46.0,2.0,2.400095,48.863891
2022-1353698,889000.0,34.0,RUE JEAN-BAPTISTE PIGALLE,75009.0,70.0,4.0,2.334399,48.879701
2022-1353700,315000.0,8.0,RUE DE SUEZ,75018.0,33.0,2.0,2.351883,48.887556
2022-1353701,1075000.0,65.0,RUE DE BRETAGNE,75003.0,55.0,2.0,2.359963,48.864211
2022-1353701,1075000.0,65.0,RUE DE BRETAGNE,75003.0,25.0,2.0,2.359963,48.864211
2022-1353702,385000.0,39.0,RUE BOURET,75019.0,38.0,2.0,2.371362,48.882661
2022-1353703,2689100.0,12.0,RUE ELZEVIR,75003.0,140.0,3.0,2.362072,48.858506
2022-1353704,380000.0,53.0,RUE C DE LA ROCHEFOUCAULD,75009.0,35.0,2.0,2.335309,48.88044
2022-1353705,1724600.0,9.0,RUE DE VEZELAY,75008.0,120.0,4.0,2.313908,48.878252
2022-1353709,436150.0,249.0,RUE DES PYRENEES,75020.0,60.0,3.0,2.397366,48.865913
2022-1353712,340000.0,15.0,RUE DE NANTES,75019.0,51.0,3.0,2.382178,48.891472
2022-1353713,315000.0,38.0,RUE VIVIENNE,75002.0,26.0,1.0,2.341752,48.870724
2022-1353714,239000.0,6.0,IMP DE LA CHAPELLE,75018.0,22.0,1.0,2.359075,48.892825
2022-1353715,184800.0,74.0,RUE ALEXANDRE DUMAS,75020.0,21.0,1.0,2.396545,48.85438
2022-1353716,200000.0,38.0,RUE DE LIEGE,75008.0,15.0,1.0,2.324251,48.87945
2022-1353718,402800.0,24.0,RUE TACLET,75020.0,49.0,2.0,2.398035,48.871135
2022-1353719,224000.0,23.0,RUE VINCENT COMPOINT,75018.0,22.0,1.0,2.338587,48.896048
2022-1353721,670000.0,54.0,RUE BLANCHE,75009.0,62.0,2.0,2.331999,48.880301
2022-1353722,1352500.0,9.0,RUE CLAPEYRON,75008.0,101.0,5.0,2.323895,48.881415
2022-1353723,480000.0,137.0,RUE LAMARCK,75018.0,47.0,2.0,2.32852,48.890954
2022-1353725,451250.0,133.0,RUE DAMREMONT,75018.0,54.0,2.0,2.337583,48.8964
2022-1353726,2050000.0,175.0,RUE DE COURCELLES,75017.0,165.0,5.0,2.296177,48.885531
2022-1353728,1899500.0,69.0,RUE CONDORCET,75009.0,144.0,6.0,2.340845,48.880175
2022-1353729,370000.0,26.0,RUE DES MONTIBOEUFS,75020.0,37.0,2.0,2.40468,48.86699
2022-1353730,330700.0,72.0,RUE POUCHET,75017.0,31.0,2.0,2.322442,48.89626
2022-1353731,387500.0,8.0,ALL DIANE DE POITIERS,75019.0,42.0,2.0,2.378537,48.873523
2022-1353732,333333.0,9.0,RUE CIVIALE,75010.0,37.0,2.0,2.375209,48.872535
2022-1353733,420000.0,76.0,RUE BOTZARIS,75019.0,54.0,3.0,2.388634,48.879359
2022-1353734,829175.0,14.0,RUE DARU,75008.0,67.0,3.0,2.302572,48.877774
2022-1353735,350000.0,9.0,RUE DE ROCHECHOUART,75009.0,86.0,3.0,2.344208,48.877128
2022-1353736,138600.0,36.0,RUE DU FBG SAINT DENIS,75010.0,12.0,1.0,2.353665,48.871148
2022-1353737,234000.0,9.0,RUE JEAN JACQUES ROUSSEAU,75001.0,17.0,1.0,2.340107,48.862401
2022-1353738,1130000.0,22.0,RUE DES TOURNELLES,75004.0,86.0,3.0,2.367555,48.854861
2022-1353740,640000.0,55.0,RUE DU TEMPLE,75004.0,47.0,2.0,2.354342,48.860236
2022-1353741,323500.0,67.0,RUE MYRHA,75018.0,40.0,2.0,2.350373,48.88652
2022-1353742,310000.0,10.0,RUE VICTOR LETALLE,75020.0,32.0,2.0,2.385324,48.866868
2022-1353743,186000.0,32.0,RUE DU BORREGO,75020.0,20.0,1.0,2.401146,48.872822
2022-1353744,388000.0,16.0,RUE REMY DE GOURMONT,75019.0,45.0,2.0,2.376908,48.877536
2022-1353745,260000.0,8.0,RUE BUZELIN,75018.0,37.0,2.0,2.364154,48.890346
2022-1353747,567000.0,2.0,RUE DE STEINKERQUE,75018.0,47.0,3.0,2.343901,48.883203
2022-1353748,290000.0,66.0,RUE DE ROCHECHOUART,75009.0,25.0,1.0,2.346927,48.881252
2022-1353749,233200.0,31.0,RUE DES ENVIERGES,75020.0,21.0,2.0,2.388059,48.872602
2022-1353752,233000.0,6.0,PL JACQUES BONSERGENT,75010.0,24.0,2.0,2.361328,48.871117
2022-1353753,250000.0,42.0,RUE DU FBG SAINT DENIS,75010.0,40.0,2.0,2.353841,48.871344
2022-1353754,614000.0,11.0,RUE DE LAGNY,75020.0,67.0,4.0,2.40074,48.849364
2022-1353755,150000.0,13.0,RUE MARIE ET LOUISE,75010.0,13.0,1.0,2.366326,48.871741
2022-1353756,547000.0,12.0,RUE JEAN JACQUES ROUSSEAU,75001.0,38.0,2.0,2.340444,48.862346
2022-1353757,340000.0,73.0,RUE SAINT ANTOINE,75004.0,31.0,2.0,2.363062,48.854257
2022-1353758,410025.0,45.0,RUE DE RICHELIEU,75001.0,50.0,2.0,2.336636,48.866343
2022-1353759,178750.0,25.0,RUE DESCOMBES,75017.0,16.0,2.0,2.291753,48.885109
2022-1353760,955500.0,6.0,RUE CHRISTIANI,75018.0,110.0,5.0,2.349001,48.885933
2022-1353762,650400.0,13.0,RUE DES ECOUFFES,75004.0,50.0,2.0,2.358437,48.856895
2022-1353763,170000.0,11.0,RUE JOUBERT,75009.0,14.0,1.0,2.331591,48.874437
2022-1353764,468000.0,11.0,RUE DE MONTYON,75009.0,28.0,2.0,2.343992,48.872906
2022-1353764,468000.0,11.0,RUE DE MONTYON,75009.0,7.0,1.0,2.343992,48.872906
2022-1353765,519000.0,16.0,RUE NOLLET,75017.0,52.0,3.0,2.324017,48.885591
2022-1353766,573000.0,15.0,RUE CLAPEYRON,75008.0,40.0,2.0,2.32347,48.881722
2022-1353767,786750.0,53.0,RUE SAINT ANTOINE,75004.0,54.0,2.0,2.364105,48.853886
2022-1353768,420000.0,7.0,RUE DE NANCY,75010.0,45.0,3.0,2.359091,48.872044
2022-1353769,1000.0,212.0,RUE LA FAYETTE,75010.0,31.0,2.0,2.367029,48.881696
2022-1353770,240000.0,13.0,RUE MARX DORMOY,75018.0,28.0,1.0,2.358636,48.885493
2022-1353771,210000.0,37.0,RUE CONDORCET,75009.0,21.0,1.0,2.344456,48.879781
2022-1353772,1042465.0,34.0,RUE LAUGIER,75017.0,100.0,4.0,2.295071,48.882075
2022-1353773,243000.0,66.0,AV SIMON BOLIVAR,75019.0,25.0,1.0,2.376731,48.87668
2022-1353774,295000.0,100.0,RUE ORFILA,75020.0,29.0,1.0,2.399905,48.867532
2022-1353775,469000.0,8.0,RUE HENRI POINCARE,75020.0,60.0,3.0,2.401988,48.869932
2022-1353776,248000.0,17.0,RUE DE SOFIA,75018.0,21.0,1.0,2.347791,48.884306
2022-1353777,347000.0,1.0,AV NIEL,75017.0,25.0,2.0,2.294031,48.879141
2022-1353778,3640000.0,4.0,RUE LINCOLN,75008.0,200.0,5.0,2.302696,48.869752
2022-1353779,644000.0,82.0,RUE PIXERECOURT,75020.0,84.0,4.0,2.396493,48.87457
2022-1353780,250000.0,23.0,RUE BOURSAULT,75017.0,20.0,1.0,2.319859,48.883767
2022-1353781,5392750.0,8.0,PL SAINTE OPPORTUNE,75001.0,34.0,2.0,2.34745,48.859692
2022-1353781,5392750.0,8.0,PL SAINTE OPPORTUNE,75001.0,20.0,1.0,2.34745,48.859692
2022-1353781,5392750.0,8.0,PL SAINTE OPPORTUNE,75001.0,34.0,2.0,2.34745,48.859692
2022-1353781,5392750.0,8.0,PL SAINTE OPPORTUNE,75001.0,34.0,2.0,2.34745,48.859692
2022-1353781,5392750.0,8.0,PL SAINTE OPPORTUNE,75001.0,62.0,3.0,2.34745,48.859692
2022-1353781,5392750.0,8.0,PL SAINTE OPPORTUNE,75001.0,24.0,1.0,2.34745,48.859692
2022-1353781,5392750.0,8.0,PL SAINTE OPPORTUNE,75001.0,34.0,2.0,2.34745,48.859692
2022-1353781,5392750.0,8.0,PL SAINTE OPPORTUNE,75001.0,96.0,4.0,2.34745,48.859692
2022-1353781,5392750.0,8.0,PL SAINTE OPPORTUNE,75001.0,20.0,1.0,2.34745,48.859692
2022-1353781,5392750.0,8.0,PL SAINTE OPPORTUNE,75001.0,62.0,3.0,2.34745,48.859692
2022-1353781,5392750.0,8.0,PL SAINTE OPPORTUNE,75001.0,34.0,2.0,2.34745,48.859692
2022-1353781,5392750.0,8.0,PL SAINTE OPPORTUNE,75001.0,34.0,1.0,2.34745,48.859692
2022-1353781,5392750.0,8.0,PL SAINTE OPPORTUNE,75001.0,34.0,2.0,2.34745,48.859692
2022-1353781,5392750.0,8.0,PL SAINTE OPPORTUNE,75001.0,49.0,2.0,2.34745,48.859692
2022-1353781,5392750.0,42.0,RUE REAUMUR,75003.0,95.0,4.0,2.35708,48.86542
2022-1353781,5392750.0,42.0,RUE REAUMUR,75003.0,39.0,2.0,2.35708,48.86542
2022-1353781,5392750.0,42.0,RUE REAUMUR,75003.0,35.0,1.0,2.35708,48.86542
2022-1353781,5392750.0,42.0,RUE REAUMUR,75003.0,95.0,4.0,2.35708,48.86542
2022-1353781,5392750.0,42.0,RUE REAUMUR,75003.0,95.0,4.0,2.35708,48.86542
2022-1353781,5392750.0,42.0,RUE REAUMUR,75003.0,95.0,4.0,2.35708,48.86542
2022-1353782,498077.0,14.0,RUE CHAPTAL,75009.0,49.0,3.0,2.333516,48.881051
2022-1353783,630000.0,5.0,RUE SAULNIER,75009.0,68.0,3.0,2.343917,48.8745
2022-1353786,596800.0,68.0,RUE DE L AQUEDUC,75010.0,58.0,3.0,2.366231,48.883212
2022-1353787,995000.0,11.0,RUE TAYLOR,75010.0,82.0,4.0,2.359217,48.870174
2022-1353789,190000.0,5.0,SQ DE MAUBEUGE,75009.0,18.0,1.0,2.346564,48.878276
2022-1353790,1050000.0,42.0,RUE DE CHABROL,75010.0,137.0,5.0,2.35186,48.877287
2022-1353791,205000.0,145.0,BD NEY,75018.0,22.0,1.0,2.330422,48.897386
2022-1353793,486000.0,24.0,RUE DES TROIS FRERES,75018.0,52.0,3.0,2.341241,48.88488
2022-1353794,930000.0,26.0,RUE DES ABBESSES,75018.0,70.0,4.0,2.337874,48.884986
2022-1353795,540000.0,165.0,RUE CHAMPIONNET,75018.0,59.0,3.0,2.335756,48.894707
2022-1353796,458450.0,339.0,RUE DE BELLEVILLE,75019.0,40.0,2.0,2.405019,48.877274
2022-1353797,273950.0,10.0,RUE SAUFFROY,75017.0,30.0,2.0,2.320812,48.890885
2022-1353799,700000.0,79.0,RUE DU FBG DU TEMPLE,75010.0,60.0,3.0,2.371548,48.870399
2022-1353800,245000.0,4.0,RUE SAINT-ROCH,75001.0,26.0,2.0,2.331755,48.864194
2022-1353801,196000.0,20.0,RUE CADET,75009.0,9.0,1.0,2.343614,48.875157
2022-1353802,145700.0,1.0,RUE ALEXANDRE PARODI,75010.0,11.0,1.0,2.366295,48.87918
2022-1353803,282000.0,12.0,RUE DE TANGER,75019.0,35.0,2.0,2.367671,48.884868
2022-1353804,1358600.0,12.0,RUE CAMBACERES,75008.0,105.0,4.0,2.318504,48.872857
2022-1353805,504000.0,19.0,BD DES BATIGNOLLES,75008.0,39.0,2.0,2.325299,48.882661
2022-1353806,407000.0,18.0,RUE DU SIMPLON,75018.0,35.0,2.0,2.350813,48.893891
2022-1353809,285000.0,8.0,RUE BURQ,75018.0,30.0,2.0,2.336404,48.885933
2022-1353810,235306.0,54.0,RUE DES ACACIAS,75017.0,27.0,2.0,2.293697,48.877666
2022-1353811,20000.0,142.0,RUE DU FBG SAINT DENIS,75010.0,3.0,1.0,2.356973,48.877332
2022-1353812,488350.0,57.0,RUE DULONG,75017.0,34.0,1.0,2.315351,48.885734
2022-1353813,200000.0,46.0,RUE BLANCHE,75009.0,22.0,2.0,2.331618,48.879835
2022-1353814,215000.0,7.0,RUE BURNOUF,75019.0,25.0,2.0,2.373824,48.875767
2022-1353815,225000.0,71.0,RUE RIQUET,75018.0,26.0,2.0,2.362389,48.889438
2022-1353816,292000.0,11.0,RUE DE THIONVILLE,75019.0,27.0,1.0,2.382581,48.889237
2022-1353817,351000.0,36.0,AV DE CLICHY,75018.0,40.0,2.0,2.326778,48.885794
2022-1353819,630000.0,312.0,RUE SAINT-HONORE,75001.0,39.0,2.0,2.331532,48.865332
2022-1353820,795731.0,22.0,RUE BROCHANT,75017.0,71.0,3.0,2.318868,48.889043
2022-1353823,330000.0,13.0,RUE DE LA GRENADE,75019.0,57.0,3.0,2.398417,48.888653
2022-1353824,288000.0,8.0,RUE FONTAINE DU BUT,75018.0,24.0,2.0,2.339489,48.890344
2022-1353825,150000.0,31.0,RUE DE L ECHIQUIER,75010.0,14.0,1.0,2.350121,48.87141
2022-1353826,1390000.0,359.0,RUE SAINT MARTIN,75003.0,121.0,5.0,2.355062,48.868862
2022-1353827,595000.0,23.0,AV JUNOT,75018.0,50.0,2.0,2.335367,48.888302
2022-1353828,235000.0,13.0,RUE JOSEPH KOSMA,75019.0,25.0,1.0,2.38652,48.89003
2022-1353829,585000.0,8.0,RUE DU HAINAUT,75019.0,69.0,3.0,2.390127,48.88681
2022-1353830,336740.0,53.0,RUE DU FBG ST MARTIN,75010.0,28.0,2.0,2.356554,48.871375
2022-1353831,160000.0,21.0,RUE DU SIMPLON,75018.0,17.0,1.0,2.350274,48.893605
2022-1353832,1.0,4.0,RUE DE L AGENT BAILLY,75009.0,64.0,3.0,2.342284,48.878501
2022-1353833,300000.0,97.0,AV JEAN JAURES,75019.0,29.0,1.0,2.38006,48.885729
2022-1353834,212000.0,104.0,RUE DE L OURCQ,75019.0,35.0,2.0,2.372543,48.894109
2022-1353835,642000.0,168.0,RUE DE BELLEVILLE,75020.0,68.0,3.0,2.391903,48.875215
2022-1353836,910000.0,12.0,RUE EMILE ALLEZ,75017.0,79.0,3.0,2.288907,48.882623
2022-1353837,765000.0,29.0,RUE EUGENE JUMIN,75019.0,93.0,4.0,2.391808,48.888012
2022-1353840,435000.0,46.0,RUE TIQUETONNE,75002.0,40.0,2.0,2.347238,48.864865
2022-1353841,728750.0,43.0,RUE DE CLICHY,75009.0,60.0,3.0,2.328419,48.879982
2022-1353844,1022482.0,71.0,RUE ORDENER,75018.0,116.0,5.0,2.349926,48.891297
2022-1353846,840000.0,48.0,QUAI DE JEMMAPES,75010.0,64.0,3.0,2.367589,48.870641
2022-1353847,1690000.0,33.0,RUE CAULAINCOURT,75018.0,125.0,4.0,2.33377,48.888461
2022-1353848,327150.0,62.0,RUE JEAN-BAPTISTE PIGALLE,75009.0,31.0,2.0,2.33699,48.881487
2022-1353849,470230.0,79.0,BD BARBES,75018.0,46.0,3.0,2.349261,48.891421
2022-1353850,246300.0,87.0,RUE DE ROME,75017.0,19.0,1.0,2.319319,48.882927
2022-1353852,300000.0,13.0,RUE GAUTHEY,75017.0,29.0,2.0,2.320223,48.891705
2022-1353853,705000.0,13.0,RUE DU PRE ST GERVAIS,75019.0,75.0,4.0,2.392639,48.876296
2022-1353857,730000.0,13.0,RUE DES TOURNELLES,75004.0,44.0,2.0,2.366948,48.854413
2022-1353858,327600.0,9.0,PAS DES TOURELLES,75020.0,26.0,2.0,2.404023,48.875358
2022-1353858,327600.0,9.0,PAS DES TOURELLES,75020.0,18.0,1.0,2.404023,48.875358
2022-1353859,675000.0,11.0,RUE DE LA CHINE,75020.0,60.0,3.0,2.398909,48.866793
2022-1353860,469000.0,42.0,RUE OLIVIER METRA,75020.0,56.0,2.0,2.394148,48.874204
2022-1353861,495850.0,7.0,QUAI DE LA GARONNE,75019.0,46.0,2.0,2.387226,48.88965
2022-1353862,430000.0,26.0,AV DE WAGRAM,75008.0,34.0,1.0,2.297517,48.876403
2022-1353863,615877.0,48.0,RUE JOSEPH DE MAISTRE,75018.0,49.0,3.0,2.331885,48.889196
2022-1353864,63970.0,21.0,RUE PIERRE SEMARD,75009.0,7.0,1.0,2.347666,48.87873
2022-1353865,176000.0,52.0,RUE LETORT,75018.0,24.0,1.0,2.344573,48.896628
2022-1353866,258000.0,23.0,RUE ESCLANGON,75018.0,26.0,2.0,2.343392,48.896568
2022-1353867,161000.0,28.0,AV GAMBETTA,75020.0,15.0,1.0,2.396183,48.8648
2022-1353869,255745.0,48.0,RUE MOURAUD,75020.0,31.0,2.0,2.408931,48.856079
2022-1353870,1500000.0,8.0,BD DE MAGENTA,75010.0,140.0,5.0,2.362647,48.869355
2022-1353872,494040.0,7.0,QUAI DE LA GARONNE,75019.0,46.0,2.0,2.387226,48.88965
2022-1353873,630000.0,41.0,BD HENRI IV,75004.0,38.0,2.0,2.366576,48.852719
2022-1353874,630000.0,16.0,RUE DE BRUXELLES,75009.0,58.0,3.0,2.330999,48.88372
2022-1353876,380000.0,6.0,RUE BOINOD,75018.0,44.0,3.0,2.350228,48.892116
2022-1353877,300000.0,8.0,RUE DES ABBESSES,75018.0,30.0,1.0,2.338989,48.88417
2022-1353878,1076000.0,69.0,RUE DE DUNKERQUE,75009.0,82.0,5.0,2.34782,48.881377
2022-1353879,704000.0,4.0,RUE DAUTANCOURT,75017.0,60.0,4.0,2.323738,48.888911
2022-1353881,630000.0,3.0,AV DES CHASSEURS,75017.0,57.0,2.0,2.306387,48.886956
2022-1353882,417300.0,92.0,RUE DES MARAICHERS,75020.0,53.0,3.0,2.406521,48.854535
2022-1353883,520000.0,104.0,RUE PELLEPORT,75020.0,55.0,3.0,2.401415,48.869329
2022-1353885,92500.0,155.0,RUE MONTMARTRE,75002.0,22.0,2.0,2.342328,48.870678
2022-1353886,346500.0,10.0,RUE CROIX DES PETITS CHAMPS,75001.0,21.0,1.0,2.339853,48.862752
2022-1353887,147619.0,5.0,RUE LIGNER,75020.0,20.0,1.0,2.397172,48.857373
2022-1353888,288500.0,96.0,BD DE LA VILLETTE,75019.0,32.0,2.0,2.372296,48.876708
2022-1353889,315000.0,112.0,BD MALESHERBES,75017.0,48.0,2.0,2.309756,48.884009
2022-1353890,822300.0,9.0,RUE DU PELICAN,75001.0,56.0,4.0,2.339632,48.862586
2022-1353891,473950.0,203.0,RUE DE CRIMEE,75019.0,54.0,3.0,2.375364,48.891497
2022-1353892,528350.0,36.0,RUE POUCHET,75017.0,40.0,2.0,2.320259,48.893368
2022-1353893,176000.0,16.0,RUE DE TERRE NEUVE,75020.0,16.0,1.0,2.397616,48.853974
2022-1353894,267000.0,11.0,RUE DE LA REUNION,75020.0,27.0,1.0,2.402637,48.853418
2022-1353895,162500.0,23.0,RUE MICHEL LE COMTE,75003.0,29.0,1.0,2.355151,48.862137
2022-1353897,964500.0,9.0,RUE POULBOT,75018.0,70.0,3.0,2.339854,48.886597
2022-1353898,1037000.0,32.0,RUE MESLAY,75003.0,98.0,3.0,2.359149,48.868113
2022-1353899,321000.0,78.0,RUE POUCHET,75017.0,30.0,2.0,2.322711,48.89656
2022-1353900,506250.0,136.0,RUE CHAMPIONNET,75018.0,50.0,2.0,2.337042,48.89574
2022-1353902,405000.0,7.0,RUE DES FETES,75019.0,49.0,2.0,2.391798,48.875981
2022-1353903,420000.0,119.0,AV DE FLANDRE,75019.0,67.0,3.0,2.376816,48.891808
2022-1353904,1300000.0,7.0,RUE VIOLLET-LE-DUC,75009.0,101.0,5.0,2.340348,48.881229
2022-1353905,280000.0,226.0,RUE DU FBG SAINT DENIS,75010.0,28.0,1.0,2.359594,48.8837
2022-1353906,533000.0,71.0,RUE BLANCHE,75009.0,50.0,2.0,2.331732,48.88264
2022-1353907,235000.0,4.0,PAS DES ABBESSES,75018.0,22.0,1.0,2.338226,48.884808
2022-1353907,235000.0,4.0,PAS DES ABBESSES,75018.0,28.0,2.0,2.338226,48.884808
2022-1353908,243020.0,27.0,RUE DE BAGNOLET,75020.0,17.0,1.0,2.396411,48.857187
2022-1353909,347500.0,23.0,RUE CLAIRAUT,75017.0,33.0,2.0,2.320097,48.888249
2022-1353910,85000.0,6.0,PAS CHAMPIONNET,75018.0,25.0,2.0,2.346924,48.895557
2022-1353911,2078500.0,17.0,RUE DU COLONEL MOLL,75017.0,196.0,6.0,2.290004,48.877425
2022-1353912,1188810.0,32.0,AV GEORGE V,75008.0,57.0,2.0,2.301586,48.868893
2022-1353913,263000.0,6.0,RUE LUCIEN SAMPAIX,75010.0,25.0,2.0,2.360106,48.870906
2022-1353915,707100.0,21.0,RUE ANDRE BARSACQ,75018.0,77.0,4.0,2.34096,48.885092
2022-1353916,344400.0,3.0,PAS DE LA MOSELLE,75019.0,36.0,2.0,2.377607,48.884382
2022-1353917,359300.0,93.0,RUE BELLIARD,75018.0,37.0,2.0,2.340625,48.896686
2022-1353918,1623000.0,12.0,RUE THEODULE RIBOT,75017.0,115.0,4.0,2.300774,48.879942
2022-1353919,570000.0,6.0,RUE DE LEVIS,75017.0,47.0,2.0,2.316588,48.881887
2022-1353919,570000.0,6.0,RUE DE LEVIS,75017.0,21.0,1.0,2.316588,48.881887
2022-1353920,1730500.0,26.0,BD DE BONNE NOUVELLE,75010.0,48.0,2.0,2.35036,48.870645
2022-1353920,1730500.0,26.0,BD DE BONNE NOUVELLE,75010.0,160.0,6.0,2.35036,48.870645
2022-1353921,100000.0,18.0,BD DE CHARONNE,75020.0,10.0,1.0,2.399528,48.849398
2022-1353922,1050000.0,55.0,RUE CAULAINCOURT,75018.0,79.0,2.0,2.334648,48.889545
2022-1353923,347500.0,58.0,RUE DU CHATEAU LANDON,75010.0,31.0,1.0,2.364754,48.883972
2022-1353924,300000.0,11.0,RUE DE JOINVILLE,75019.0,31.0,2.0,2.378047,48.890545
2022-1353925,262000.0,5.0,RUE DE SAVIES,75020.0,25.0,1.0,2.390794,48.871662
2022-1353927,690850.0,12.0,RUE HEGESIPPE MOREAU,75018.0,59.0,3.0,2.327321,48.88735
2022-1353928,368650.0,30.0,BD BARBES,75018.0,35.0,2.0,2.349866,48.886081
2022-1353929,572000.0,80.0,BD DE BELLEVILLE,75020.0,78.0,3.0,2.38001,48.870056
2022-1353930,343000.0,17.0,RUE D AUBERVILLIERS,75018.0,46.0,2.0,2.365243,48.885513
2022-1353931,375770.0,74.0,RUE MARCADET,75018.0,36.0,2.0,2.347358,48.890609
2022-1353934,555000.0,62.0,RUE DE ROMAINVILLE,75019.0,79.0,3.0,2.40253,48.877354
2022-1353935,986700.0,36.0,BD ORNANO,75018.0,92.0,5.0,2.348237,48.893924
2022-1353936,384000.0,46.0,RUE GUY MOQUET,75017.0,43.0,3.0,2.324452,48.892197
2022-1353938,490000.0,30.0,AV MATHURIN MOREAU,75019.0,54.0,3.0,2.37487,48.878189
2022-1353939,930000.0,77.0,RUE RAMBUTEAU,75001.0,80.0,2.0,2.349651,48.861977
2022-1353940,515000.0,3.0,RUE DAUTANCOURT,75017.0,45.0,2.0,2.32339,48.889131
2022-1353941,402000.0,58.0,RUE DE ROCHECHOUART,75009.0,26.0,2.0,2.347101,48.880469
2022-1353942,870000.0,64.0,RUE C DE LA ROCHEFOUCAULD,75009.0,66.0,3.0,2.336408,48.880603
2022-1353944,495700.0,28.0,AV GAMBETTA,75020.0,44.0,3.0,2.396183,48.8648
2022-1353946,309585.3,25.0,RUE CLAVEL,75019.0,30.0,2.0,2.383261,48.875355
2022-1353947,460000.0,106.0,RUE DES MARAICHERS,75020.0,45.0,2.0,2.404989,48.856867
2022-1353948,237720.0,22.0,RUE DU COLISEE,75008.0,17.0,1.0,2.309475,48.871005
2022-1353949,320000.0,83.0,RUE DES MOINES,75017.0,29.0,3.0,2.32177,48.891705
2022-1353950,1321000.0,4.0,RUE DU VERTBOIS,75003.0,128.0,5.0,2.360241,48.866795
2022-1353951,436000.0,217.0,RUE CHAMPIONNET,75018.0,47.0,2.0,2.33038,48.893503
2022-1353952,267500.0,30.0,RUE SIMART,75018.0,32.0,2.0,2.347268,48.891638
2022-1353953,18500000.0,16.0,QUAI D ORLEANS,75004.0,150.0,4.0,2.354945,48.851726
2022-1353953,18500000.0,16.0,QUAI D ORLEANS,75004.0,63.0,2.0,2.354945,48.851726
2022-1353953,18500000.0,16.0,QUAI D ORLEANS,75004.0,188.0,6.0,2.354945,48.851726
2022-1353953,18500000.0,16.0,QUAI D ORLEANS,75004.0,60.0,3.0,2.354945,48.851726
2022-1353954,404000.0,8.0,VLA DAMREMONT,75018.0,32.0,2.0,2.337324,48.893898
2022-1353955,634700.0,27.0,RUE DES ENVIERGES,75020.0,40.0,3.0,2.387435,48.872596
2022-1353956,674900.0,77.0,RUE VAUVENARGUES,75018.0,69.0,3.0,2.329578,48.89688
2022-1353959,749400.0,61.0,RUE DE ROCHECHOUART,75009.0,67.0,2.0,2.345859,48.880564
2022-1353961,720000.0,53.0,RUE C DE LA ROCHEFOUCAULD,75009.0,65.0,3.0,2.335309,48.88044
2022-1353962,568000.0,188.0,RUE DU FBG ST MARTIN,75010.0,54.0,3.0,2.363284,48.878522
2022-1353963,578000.0,37.0,QUAI D ANJOU,75004.0,30.0,2.0,2.35717,48.85211
2022-1353964,504000.0,28.0,RUE DE LA REUNION,75020.0,45.0,3.0,2.403055,48.853792
2022-1353965,378320.62,71.0,RUE LAUGIER,75017.0,45.0,2.0,2.292022,48.884138
2022-1353967,325000.0,268.0,RUE DU FAUBOURG SAINT HONORE,75008.0,27.0,2.0,2.299366,48.877814
2022-1353968,1450000.0,90.0,RUE LEPIC,75018.0,79.0,4.0,2.336346,48.887115
2022-1353969,431766.0,17.0,VLA SAINT MICHEL,75018.0,38.0,3.0,2.328162,48.889759
2022-1353970,953950.0,32.0,RUE DES ORMEAUX,75020.0,60.0,4.0,2.400773,48.851109
2022-1353971,303700.0,15.0,RUE DU RHIN,75019.0,29.0,2.0,2.381874,48.884218
2022-1353972,2510710.0,12.0,RUE BARBETTE,75003.0,122.0,4.0,2.360834,48.859096
2022-1353973,583500.0,119.0,AV DE SAINT-OUEN,75017.0,66.0,3.0,2.3278,48.895292
2022-1353975,116500.0,8.0,AV TRUDAINE,75009.0,10.0,1.0,2.345519,48.88195
2022-1353976,730000.0,32.0,BD DE CLICHY,75018.0,62.0,2.0,2.336819,48.88288
2022-1353977,707050.0,104.0,RUE DE RICHELIEU,75002.0,60.0,1.0,2.340274,48.871079
2022-1353978,999600.0,44.0,RUE BLANCHE,75009.0,74.0,3.0,2.331794,48.879664
2022-1353979,550000.0,26.0,RUE DES VIGNOLES,75020.0,19.0,2.0,2.399306,48.853433
2022-1353979,550000.0,26.0,RUE DES VIGNOLES,75020.0,60.0,4.0,2.399306,48.853433
2022-1353980,312500.0,25.0,RUE DU BORREGO,75020.0,32.0,2.0,2.399973,48.873413
2022-1353981,920000.0,13.0,RUE FERDINAND DUVAL,75004.0,51.0,1.0,2.359181,48.856659
2022-1353982,380000.0,34.0,RUE ORDENER,75018.0,46.0,3.0,2.350866,48.89151
2022-1353983,750000.0,20.0,RUE DES ACACIAS,75017.0,62.0,2.0,2.291405,48.876284
2022-1353984,108320.0,4.0,RUE ARTHUR GROUSSIER,75010.0,9.0,1.0,2.370249,48.871722
2022-1353985,610000.0,7.0,RUE PIERRE DUPONT,75010.0,56.0,4.0,2.364298,48.879331
2022-1353987,175000.0,29.0,RUE SAINT-DENIS,75001.0,19.0,1.0,2.34793,48.859905
2022-1353988,164500.0,13.0,RUE DE BUDAPEST,75009.0,13.0,1.0,2.327237,48.876778
2022-1353991,428000.0,27.0,RUE DE CLIGNANCOURT,75018.0,48.0,3.0,2.346845,48.88553
2022-1353992,12500.0,14.0,RUE DE MENILMONTANT,75020.0,49.0,3.0,2.384536,48.867135
2022-1353993,600000.0,65.0,RUE CAULAINCOURT,75018.0,50.0,2.0,2.335965,48.889809
2022-1353994,590000.0,5.0,RUE DE BRAQUE,75003.0,77.0,3.0,2.356601,48.860761
2022-1353996,550100.0,6.0,BD DE CLICHY,75018.0,42.0,2.0,2.339188,48.882501
2022-1353997,220000.0,5.0,RUE DE L EST,75020.0,22.0,1.0,2.393881,48.870881
2022-1353999,520000.0,35.0,RUE LACROIX,75017.0,52.0,3.0,2.322847,48.890971
2022-1354000,2791200.0,21.0,RUE D EDIMBOURG,75008.0,205.0,7.0,2.319865,48.879221
2022-1354002,260000.0,1.0,SQ DE VERDUN,75010.0,27.0,1.0,2.362402,48.876209
2022-1354003,468310.0,66.0,AV SIMON BOLIVAR,75019.0,46.0,2.0,2.376731,48.87668
2022-1354004,600000.0,19.0,RUE DE TURENNE,75004.0,48.0,2.0,2.363626,48.855847
2022-1354006,606000.0,6.0,VC J 20,75020.0,87.0,5.0,2.402724,48.873186
2022-1354007,814000.0,6.0,RUE DES TERNES,75017.0,71.0,4.0,2.288691,48.881052
2022-1354008,315000.0,6.0,RUE JACQUES KABLE,75018.0,35.0,2.0,2.362228,48.886272
2022-1354009,112500.0,6.0,RUE MARTEL,75010.0,78.0,4.0,2.353589,48.873663
2022-1354010,388000.0,7.0,RUE ACHILLE MARTINET,75018.0,38.0,2.0,2.336642,48.892018
2022-1354011,175000.0,75.0,BD SERURIER,75019.0,10.0,1.0,2.400693,48.878932
2022-1354011,175000.0,75.0,BD SERURIER,75019.0,19.0,1.0,2.400693,48.878932
2022-1354014,565000.0,17.0,RUE DU FBOURG MONTMARTRE,75009.0,47.0,2.0,2.342459,48.872759
2022-1354015,1325600.0,22.0,RUE BURQ,75018.0,70.0,3.0,2.336873,48.886707
2022-1354016,643850.0,1.0,RUE LANTIEZ,75017.0,59.0,2.0,2.322617,48.893732
2022-1354018,1000000.0,65.0,RUE MARX DORMOY,75018.0,90.0,5.0,2.359122,48.889445
2022-1354019,1650000.0,3.0,RUE DE NAVARIN,75009.0,83.0,3.0,2.339447,48.879364
2022-1354020,187256.0,9.0,RUE DU MONT-DORE,75017.0,15.0,1.0,2.322679,48.883155
2022-1354021,2000.0,31.0,RUE FESSART,75019.0,26.0,2.0,2.385713,48.876629
2022-1354022,330000.0,14.0,RUE LA CONDAMINE,75017.0,32.0,2.0,2.323594,48.887787
2022-1354023,280275.0,4.0,RUE DES APENNINS,75017.0,26.0,2.0,2.32168,48.890148
2022-1354028,2500.0,15.0,RUE DUVERGIER,75019.0,44.0,2.0,2.37602,48.889653
2022-1354029,2195000.0,15.0,RUE DUVERGIER,75019.0,22.0,1.0,2.37602,48.889653
2022-1354029,2195000.0,15.0,RUE DUVERGIER,75019.0,24.0,1.0,2.37602,48.889653
2022-1354029,2195000.0,15.0,RUE DUVERGIER,75019.0,12.0,1.0,2.37602,48.889653
2022-1354029,2195000.0,15.0,RUE DUVERGIER,75019.0,28.0,2.0,2.37602,48.889653
2022-1354029,2195000.0,15.0,RUE DUVERGIER,75019.0,55.0,3.0,2.37602,48.889653
2022-1354029,2195000.0,15.0,RUE DUVERGIER,75019.0,51.0,2.0,2.37602,48.889653
2022-1354029,2195000.0,15.0,RUE DUVERGIER,75019.0,55.0,3.0,2.37602,48.889653
2022-1354029,2195000.0,15.0,RUE DUVERGIER,75019.0,33.0,2.0,2.37602,48.889653
2022-1354029,2195000.0,15.0,RUE DUVERGIER,75019.0,44.0,2.0,2.37602,48.889653
2022-1354029,2195000.0,15.0,RUE DUVERGIER,75019.0,33.0,2.0,2.37602,48.889653
2022-1354030,595000.0,5.0,RUE CHAUDRON,75010.0,60.0,3.0,2.36633,48.882644
2022-1354031,445000.0,9.0,RUE DES LIONS SAINT PAUL,75004.0,44.0,2.0,2.361893,48.852294
2022-1354034,779000.0,30.0,RUE CALMELS PROLONGEE,75018.0,71.0,3.0,2.337958,48.893812
2022-1354037,448000.0,29.0,RUE RAMEY,75018.0,41.0,3.0,2.346337,48.888532
2022-1354038,45000.0,5.0,RUE JEAN ROBERT,75018.0,11.0,1.0,2.357992,48.889256
2022-1354038,45000.0,5.0,RUE JEAN ROBERT,75018.0,15.0,1.0,2.357992,48.889256
2022-1354039,700000.0,7.0,RUE BLONDEL,75003.0,52.0,2.0,2.35429,48.868485
2022-1354039,700000.0,7.0,RUE BLONDEL,75003.0,42.0,2.0,2.35429,48.868485
2022-1354039,700000.0,7.0,RUE BLONDEL,75003.0,60.0,2.0,2.35429,48.868485
2022-1354039,700000.0,7.0,RUE BLONDEL,75003.0,41.0,2.0,2.35429,48.868485
2022-1354039,700000.0,7.0,RUE BLONDEL,75003.0,99.0,4.0,2.35429,48.868485
2022-1354039,700000.0,63.0,AV DE WAGRAM,75017.0,25.0,1.0,2.298228,48.878841
2022-1354039,700000.0,63.0,AV DE WAGRAM,75017.0,25.0,2.0,2.298228,48.878841
2022-1354039,700000.0,63.0,AV DE WAGRAM,75017.0,33.0,1.0,2.298228,48.878841
2022-1354039,700000.0,63.0,AV DE WAGRAM,75017.0,60.0,3.0,2.298228,48.878841
2022-1354039,700000.0,63.0,AV DE WAGRAM,75017.0,25.0,2.0,2.298228,48.878841
2022-1354039,700000.0,63.0,AV DE WAGRAM,75017.0,60.0,4.0,2.298228,48.878841
2022-1354039,700000.0,63.0,AV DE WAGRAM,75017.0,60.0,4.0,2.298228,48.878841
2022-1354039,700000.0,63.0,AV DE WAGRAM,75017.0,27.0,1.0,2.298228,48.878841
2022-1354039,700000.0,63.0,AV DE WAGRAM,75017.0,68.0,2.0,2.298228,48.878841
2022-1354039,700000.0,63.0,AV DE WAGRAM,75017.0,27.0,2.0,2.298228,48.878841
2022-1354039,700000.0,63.0,AV DE WAGRAM,75017.0,56.0,2.0,2.298228,48.878841
2022-1354039,700000.0,63.0,AV DE WAGRAM,75017.0,13.0,1.0,2.298228,48.878841
2022-1354040,325000.0,3.0,RUE DU RUISSEAU,75018.0,33.0,2.0,2.339538,48.891543
2022-1354041,582200.0,27.0,RUE DE BAGNOLET,75020.0,56.0,2.0,2.396411,48.857187
2022-1354043,140000.0,23.0,RUE DU TERRAGE,75010.0,14.0,1.0,2.362334,48.877306
2022-1354044,750000.0,27.0,RUE DU FBOURG MONTMARTRE,75009.0,50.0,3.0,2.342553,48.87341
2022-1354045,145970.0,199.0,RUE DES PYRENEES,75020.0,15.0,1.0,2.399605,48.862412
2022-1354046,230000.0,6.0,VLA SAINT MICHEL,75018.0,21.0,2.0,2.326967,48.890063
2022-1354048,258000.0,38.0,RUE DES HAIES,75020.0,25.0,2.0,2.40185,48.853015
2022-1354049,355000.0,16.0,RUE LUCIEN SAMPAIX,75010.0,48.0,2.0,2.360901,48.87189
2022-1354050,1320000.0,140.0,RUE DE RIVOLI,75001.0,89.0,3.0,2.343111,48.860429
2022-1354051,214800.0,22.0,RUE DU PLATEAU,75019.0,27.0,2.0,2.384459,48.878584
2022-1354052,539000.0,31.0,RUE DES TROIS FRERES,75018.0,60.0,2.0,2.340596,48.88487
2022-1354053,1525000.0,12.0,RUE DU HELDER,75009.0,130.0,4.0,2.335265,48.871972
2022-1354054,490000.0,20.0,RUE DE SAINTONGE,75003.0,36.0,1.0,2.362853,48.861909
2022-1354055,82000.0,2.0,PAS DE CLICHY,75018.0,10.0,1.0,2.327731,48.884292
2022-1354056,292000.0,92.0,RUE DE L OURCQ,75019.0,42.0,2.0,2.374223,48.89394
2022-1354058,390000.0,39.0,RUE LA GRANGE AUX BELLES,75010.0,42.0,2.0,2.367121,48.875784
2022-1354059,268630.0,43.0,RUE BICHAT,75010.0,25.0,2.0,2.366877,48.87213
2022-1354061,318000.0,13.0,RUE DE SOFIA,75018.0,30.0,2.0,2.348168,48.88449
2022-1354062,235000.0,19.0,RUE BOUCRY,75018.0,65.0,3.0,2.361372,48.894088
2022-1354063,291000.0,9.0,RUE DE ROCHECHOUART,75009.0,26.0,1.0,2.344208,48.877128
2022-1354065,250000.0,17.0,RUE ANDRE BARSACQ,75018.0,23.0,2.0,2.341157,48.885013
2022-1354066,815000.0,65.0,QUAI DE VALMY,75010.0,83.0,3.0,2.364764,48.871226
2022-1354067,231350.0,55.0,AV JEAN JAURES,75019.0,23.0,1.0,2.375535,48.884625
2022-1354069,890000.0,18.0,RUE GERMAIN PILON,75018.0,67.0,4.0,2.337048,48.883921
2022-1354071,411000.0,7.0,RUE DAUTANCOURT,75017.0,38.0,2.0,2.32361,48.889315
2022-1354072,271000.0,8.0,RUE TESSON,75010.0,23.0,1.0,2.371354,48.870906
2022-1354073,125150.0,15.0,RUE DU CHATEAU D EAU,75010.0,13.0,1.0,2.360363,48.869835
2022-1354074,1060000.0,16.0,RUE MILTON,75009.0,70.0,4.0,2.341374,48.878031
2022-1354075,342240.0,7.0,IMP DES CHEVALIERS,75020.0,36.0,2.0,2.396681,48.872084
2022-1354076,155079.0,8.0,RUE BOUCRY,75018.0,27.0,1.0,2.362369,48.894577
2022-1354078,840000.0,82.0,QUAI DE LA LOIRE,75019.0,76.0,3.0,2.379117,48.887083
2022-1354079,502000.0,57.0,RUE DE DUNKERQUE,75009.0,34.0,2.0,2.348974,48.881117
2022-1354079,502000.0,57.0,RUE DE DUNKERQUE,75009.0,32.0,2.0,2.348974,48.881117
2022-1354080,1234200.0,13.0,RUE DE BRUXELLES,75009.0,117.0,4.0,2.329226,48.882831
2022-1354083,724465.0,50.0,RUE CONDORCET,75009.0,58.0,3.0,2.34334,48.880494
2022-1354084,90200.0,135.0,BD DAVOUT,75020.0,17.0,1.0,2.409404,48.858276
2022-1354086,846000.0,29.0,RUE EUGENE JUMIN,75019.0,82.0,4.0,2.391808,48.888012
2022-1354087,635000.0,54.0,RUE DE DUNKERQUE,75009.0,48.0,3.0,2.347982,48.881911
2022-1354088,749990.0,5.0,RUE DES SAUSSAIES,75008.0,55.0,2.0,2.317157,48.871352
2022-1354089,403000.0,207.0,RUE LA FAYETTE,75010.0,41.0,2.0,2.363693,48.881381
2022-1354091,220000.0,10.0,RUE DE GRANGE BATELIERE,75009.0,23.0,2.0,2.341792,48.873325
2022-1354092,815000.0,171.0,RUE SAINT MARTIN,75003.0,65.0,3.0,2.351816,48.862646
2022-1354094,910000.0,76.0,BD BARBES,75018.0,96.0,4.0,2.350347,48.889417
2022-1354095,460000.0,68.0,RUE DES POISSONNIERS,75018.0,47.0,2.0,2.351694,48.890606
2022-1354097,405000.0,13.0,RUE CLAUDE POUILLET,75017.0,36.0,2.0,2.314847,48.883784
2022-1354098,250000.0,21.0,RUE DOUDEAUVILLE,75018.0,28.0,2.0,2.356771,48.888469
2022-1354100,520000.0,1.0,RUE FROCHOT,75009.0,45.0,3.0,2.337423,48.881102
2022-1354101,310420.0,3.0,RUE DE LA CR DES NOUES,75020.0,29.0,1.0,2.403518,48.863282
2022-1354102,113000.0,51.0,RUE DU CHATEAU D EAU,75010.0,14.0,1.0,2.356245,48.871935
2022-1354103,508000.0,39.0,RUE GANNERON,75018.0,49.0,2.0,2.327278,48.88812
2022-1354104,495000.0,123.0,AV SIMON BOLIVAR,75019.0,78.0,4.0,2.373761,48.880603
2022-1354104,495000.0,123.0,AV SIMON BOLIVAR,75019.0,78.0,4.0,2.373761,48.880603
2022-1354105,385000.0,115.0,RUE DES DAMES,75017.0,23.0,2.0,2.317446,48.882451
2022-1354105,385000.0,115.0,RUE DES DAMES,75017.0,27.0,2.0,2.317446,48.882451
2022-1354106,205000.0,17.0,RUE DU DR PAUL BROUSSE,75017.0,25.0,2.0,2.318105,48.895678
2022-1354107,531000.0,99.0,RUE ALEXANDRE DUMAS,75020.0,51.0,3.0,2.399829,48.855563
2022-1354108,188122.0,63.0,RUE RAMEY,75018.0,43.0,3.0,2.345139,48.890526
2022-1354109,105000.0,26.0,BD DE BONNE NOUVELLE,75010.0,14.0,1.0,2.35036,48.870645
2022-1354110,70000.0,10.0,RUE JEAN ET MARIE MOINON,75010.0,8.0,1.0,2.370668,48.87355
2022-1354111,777250.0,6.0,RUE ROGER BACON,75017.0,63.0,3.0,2.289206,48.882342
2022-1354112,2272719.0,83.0,RUE PIERRE DEMOURS,75017.0,172.0,5.0,2.299383,48.883968
2022-1354113,167000.0,51.0,RUE DU FBG SAINT DENIS,75010.0,14.0,1.0,2.353402,48.871898
2022-1354114,217905.0,13.0,RUE LABOIS ROUILLON,75019.0,18.0,1.0,2.371818,48.89353
2022-1354115,559300.0,3.0,RUE CRILLON,75004.0,50.0,2.0,2.365023,48.848644
2022-1354116,395776.0,13.0,RUE DE LA CR DES NOUES,75020.0,41.0,2.0,2.402435,48.863649
2022-1354118,420000.0,69.0,RUE DES MOINES,75017.0,32.0,2.0,2.321248,48.891168
2022-1354121,100.0,72.0,RUE DE BELLEVILLE,75020.0,42.0,3.0,2.383855,48.873265
2022-1354122,675000.0,44.0,RUE DE TURBIGO,75003.0,53.0,2.0,2.354892,48.865043
2022-1354123,390000.0,6.0,COUR DES PETITES ECURIES,75010.0,32.0,3.0,2.353409,48.872538
2022-1354124,213270.0,10.0,RUE CAULAINCOURT,75018.0,22.0,1.0,2.330723,48.885213
2022-1354126,291500.0,52.0,RUE PETIT,75019.0,34.0,2.0,2.384127,48.884947
2022-1354127,525000.0,39.0,RUE LA GRANGE AUX BELLES,75010.0,46.0,2.0,2.367121,48.875784
2022-1354128,1255000.0,2.0,QUAI DE GESVRES,75004.0,84.0,4.0,2.350456,48.856306
2022-1354129,318000.0,13.0,RUE BEAUTREILLIS,75004.0,28.0,1.0,2.363643,48.853106
2022-1354130,364600.0,107.0,RUE DE CRIMEE,75019.0,35.0,2.0,2.382824,48.885066
2022-1354131,178000.0,80.0,RUE DULONG,75017.0,18.0,1.0,2.31456,48.886888
2022-1354132,557692.0,8.0,RUE SQUARE CARPEAUX,75018.0,51.0,2.0,2.332797,48.89262
2022-1354133,299200.0,9.0,RUE TIQUETONNE,75002.0,14.0,1.0,2.349341,48.864385
2022-1354135,1010000.0,11.0,RUE BLANCHE,75009.0,101.0,4.0,2.33136,48.878291
2022-1354136,460000.0,15.0,RUE LAMARTINE,75009.0,95.0,3.0,2.342039,48.876404
2022-1354137,1067379.0,1.0,RUE HASSARD,75019.0,110.0,3.0,2.383698,48.878525
2022-1354138,355440.0,12.0,RUE ERNESTINE,75018.0,38.0,1.0,2.354934,48.889328
2022-1354139,281000.0,2.0,RUE AUMONT THIEVILLE,75017.0,22.0,1.0,2.288691,48.883404
2022-1354140,466550.0,30.0,RUE DU MONT CENIS,75018.0,35.0,2.0,2.342781,48.8893
2022-1354143,330000.0,25.0,AV DE LAUMIERE,75019.0,42.0,2.0,2.380369,48.88349
2022-1354145,660000.0,6.0,RUE FELIX ZIEM,75018.0,58.0,3.0,2.333444,48.889821
2022-1354146,810000.0,154.0,RUE CHAMPIONNET,75018.0,68.0,2.0,2.335987,48.89555
2022-1354147,557900.0,29.0,BD DE ROCHECHOUART,75009.0,47.0,3.0,2.345727,48.882848
2022-1354148,426000.0,12.0,RUE ST MATHIEU,75018.0,57.0,2.0,2.354579,48.886405
2022-1354149,147200.0,45.0,RUE LACROIX,75017.0,17.0,1.0,2.323252,48.891328
2022-1354150,375400.0,3.0,IMP MASSONNET,75018.0,54.0,2.0,2.351512,48.895487
2022-1354151,150000.0,52.0,RUE DE ROME,75008.0,6.0,1.0,2.322357,48.879181
2022-1354152,237000.0,56.0,BD ORNANO,75018.0,26.0,2.0,2.346765,48.895499
2022-1354153,560000.0,9.0,RUE FRANCOEUR,75018.0,48.0,3.0,2.341339,48.890333
2022-1354154,225000.0,40.0,RUE DE LABORDE,75008.0,22.0,1.0,2.317096,48.875756
2022-1354156,1400000.0,6.0,RUE DE MONBEL,75017.0,80.0,4.0,2.308872,48.887299
2022-1354157,482000.0,25.0,RUE DAUTANCOURT,75017.0,40.0,2.0,2.324806,48.890223
2022-1354158,760600.0,41.0,RUE BROCHANT,75017.0,56.0,2.0,2.319342,48.890291
2022-1354159,1680000.0,4.0,RUE VICTOR MASSE,75009.0,124.0,4.0,2.340013,48.880631
2022-1354160,280000.0,31.0,RUE DE CONSTANTINOPLE,75008.0,43.0,1.0,2.318478,48.880343
2022-1354163,550000.0,35.0,RUE DU TRANSVAAL,75020.0,50.0,3.0,2.388952,48.872017
2022-1354164,622544.0,5.0,RUE JACQUES CARTIER,75018.0,54.0,2.0,2.32955,48.894147
2022-1354167,201000.0,65.0,RUE DU FBG DU TEMPLE,75010.0,9.0,1.0,2.370435,48.870213
2022-1354167,201000.0,65.0,RUE DU FBG DU TEMPLE,75010.0,5.0,0.0,2.370435,48.870213
2022-1354170,260000.0,9.0,AV TAILLADE,75020.0,30.0,1.0,2.394148,48.874204
2022-1354172,901150.0,4.0,RUE DE L AGENT BAILLY,75009.0,64.0,3.0,2.342284,48.878501
2022-1354174,282425.0,12.0,RUE CAROLINE,75017.0,54.0,3.0,2.323722,48.883729
2022-1354175,500000.0,96.0,AV DE CLICHY,75017.0,13.0,1.0,2.323121,48.889142
2022-1354175,500000.0,96.0,AV DE CLICHY,75017.0,5.0,0.0,2.323121,48.889142
2022-1354175,500000.0,96.0,AV DE CLICHY,75017.0,12.0,1.0,2.323121,48.889142
2022-1354176,1280000.0,75.0,RUE BEAUBOURG,75003.0,35.0,2.0,2.354542,48.863758
2022-1354176,1280000.0,75.0,RUE BEAUBOURG,75003.0,44.0,2.0,2.354542,48.863758
2022-1354177,263000.0,6.0,RUE EDGAR VARESE,75019.0,34.0,1.0,2.389061,48.888913
2022-1354178,550000.0,29.0,RUE DE TURENNE,75003.0,35.0,2.0,2.364192,48.856606
2022-1354179,2156863.0,32.0,RUE DE WASHINGTON,75008.0,165.0,5.0,2.304074,48.873481
2022-1354180,175000.0,18.0,RUE LAURENCE SAVART,75020.0,15.0,1.0,2.393828,48.868076
2022-1354181,580000.0,52.0,AV DES TERNES,75017.0,49.0,3.0,2.292453,48.879434
2022-1354182,283000.0,8.0,VLA DE GUELMA,75018.0,35.0,2.0,2.337298,48.883051
2022-1354183,577100.0,159.0,RUE MONTMARTRE,75002.0,55.0,2.0,2.342373,48.870809
2022-1354184,505000.0,20.0,RUE LEBOUTEUX,75017.0,42.0,3.0,2.31518,48.883186
2022-1354185,290000.0,31.0,RUE DES ENVIERGES,75020.0,24.0,2.0,2.388059,48.872602
2022-1354186,620000.0,12.0,RUE LANTIEZ,75017.0,70.0,3.0,2.323469,48.894111
2022-1354187,500000.0,29.0,VLA CURIAL,75019.0,87.0,4.0,2.370769,48.890985
2022-1354188,817400.0,8.0,RUE DE L HOPITAL ST LOUIS,75010.0,75.0,4.0,2.365632,48.87521
2022-1354189,206000.0,82.0,AV DE CLICHY,75017.0,21.0,1.0,2.324241,48.888515
2022-1354190,900000.0,4.0,RUE JEAN MOREAS,75017.0,96.0,4.0,2.29271,48.886881
2022-1354192,725000.0,12.0,RUE HENRI POINCARE,75020.0,86.0,3.0,2.401771,48.870128
2022-1354193,272000.0,33.0,RUE BRUNEL,75017.0,18.0,1.0,2.287358,48.878881
2022-1354194,165000.0,7.0,RUE BUZELIN,75018.0,24.0,2.0,2.363596,48.890402
2022-1354195,195500.0,92.0,RUE GEORGES LARDENNOIS,75019.0,18.0,1.0,2.376366,48.876896
2022-1354197,215000.0,14.0,RUE DE MEAUX,75019.0,22.0,2.0,2.371337,48.878647
2022-1354198,5000.0,72.0,RUE DE BELLEVILLE,75020.0,42.0,2.0,2.383855,48.873265
2022-1354199,879040.0,7.0,RUE STENDHAL,75020.0,87.0,4.0,2.402207,48.860502
2022-1354200,375000.0,42.0,RUE DU VOLGA,75020.0,41.0,2.0,2.407689,48.852388
2022-1354201,491000.0,67.0,RUE DES GRANDS CHAMPS,75020.0,46.0,2.0,2.404791,48.851528
2022-1354202,182500.0,92.0,RUE GEORGES LARDENNOIS,75019.0,18.0,1.0,2.376366,48.876896
2022-1354203,270000.0,19.0,RUE JACQUES LOUVEL TESSIER,75010.0,24.0,2.0,2.37045,48.871617
2022-1354204,580000.0,36.0,RUE DES PETITS HOTELS,75010.0,55.0,3.0,2.352485,48.87774
2022-1354205,186000.0,89.0,RUE DES PYRENEES,75020.0,56.0,2.0,2.40454,48.854302
2022-1354206,150000.0,89.0,RUE DES PYRENEES,75020.0,56.0,2.0,2.40454,48.854302
2022-1354207,245000.0,66.0,AV SIMON BOLIVAR,75019.0,25.0,1.0,2.376731,48.87668
2022-1354208,100000.0,20.0,RUE CAULAINCOURT,75018.0,90.0,4.0,2.333381,48.887122
2022-1354209,66654.0,25.0,RUE D ENGHIEN,75010.0,29.0,1.0,2.350792,48.871813
2022-1354210,397330.0,95.0,AV DE SAINT-OUEN,75017.0,37.0,2.0,2.327364,48.893868
2022-1354211,295000.0,170.0,AV PARMENTIER,75010.0,28.0,1.0,2.370173,48.872065
2022-1354217,1030000.0,17.0,RUE JEAN LECLAIRE,75017.0,79.0,3.0,2.325732,48.894542
2022-1354218,825000.0,13.0,RUE DUVERGIER,75019.0,90.0,5.0,2.376219,48.889548
2022-1354221,615000.0,168.0,RUE ORDENER,75018.0,54.0,3.0,2.334989,48.894009
2022-1354222,80000.0,12.0,AV DE LAUMIERE,75019.0,8.0,1.0,2.381178,48.883748
2022-1354223,543700.0,38.0,RUE DE SAINT QUENTIN,75010.0,50.0,2.0,2.356149,48.879404
2022-1354224,621889.0,7.0,RUE LAMANDE,75017.0,54.0,3.0,2.319707,48.886177
2022-1354225,500000.0,18.0,RUE DARCET,75017.0,42.0,3.0,2.32501,48.88418
2022-1354226,575000.0,9.0,RUE LE BUA,75020.0,18.0,1.0,2.403214,48.867028
2022-1354227,383200.0,3.0,RUE DES PETITES ECURIES,75010.0,42.0,3.0,2.353867,48.872776
2022-1354228,425000.0,109.0,RUE DU MONT CENIS,75018.0,46.0,2.0,2.345236,48.894885
2022-1354229,175000.0,43.0,CRS DE VINCENNES,75020.0,17.0,1.0,2.403598,48.848359
2022-1354230,580000.0,19.0,RUE DES PETITES ECURIES,75010.0,43.0,2.0,2.352035,48.873314
2022-1354232,300000.0,6.0,RUE D ARMAILLE,75017.0,35.0,1.0,2.292254,48.877466
2022-1354233,720000.0,10.0,RUE DE MIROMESNIL,75008.0,64.0,2.0,2.316345,48.872074
2022-1354234,456400.0,156.0,AV DE CLICHY,75017.0,41.0,2.0,2.319155,48.89146
2022-1354235,200000.0,180.0,RUE SAINT MAUR,75010.0,14.0,1.0,2.372873,48.870954
2022-1354236,280000.0,48.0,RUE GRENETA,75002.0,33.0,2.0,2.348362,48.865725
2022-1354237,400000.0,83.0,BD DE MAGENTA,75010.0,32.0,2.0,2.355573,48.876248
2022-1354238,1737560.0,22.0,RUE DE WASHINGTON,75008.0,126.0,6.0,2.303351,48.872911
2022-1354239,74000.0,202.0,RUE DE CRIMEE,75019.0,25.0,2.0,2.375655,48.89194
2022-1354240,233250.0,82.0,AV DE FLANDRE,75019.0,38.0,2.0,2.375954,48.889462
2022-1354241,235000.0,26.0,RUE FEUTRIER,75018.0,30.0,1.0,2.34599,48.887152
2022-1354242,195000.0,123.0,RUE DES DAMES,75017.0,17.0,1.0,2.316757,48.882271
2022-1354243,333170.0,71.0,AV DES TERNES,75017.0,32.0,1.0,2.289092,48.879007
2022-1354244,245000.0,8.0,RUE DES RONDEAUX,75020.0,28.0,1.0,2.399784,48.861393
2022-1354245,650000.0,34.0,RUE DES BOURDONNAIS,75001.0,64.0,2.0,2.345676,48.86015
2022-1354246,100000.0,155.0,BD DE MAGENTA,75009.0,10.0,1.0,2.349106,48.883314
2022-1354247,145000.0,61.0,RUE DE ROMAINVILLE,75019.0,16.0,1.0,2.403709,48.877311
2022-1354249,329700.0,53.0,RUE DUHESME,75018.0,30.0,2.0,2.341497,48.892681
2022-1354250,610000.0,14.0,RUE ETEX,75018.0,47.0,2.0,2.328423,48.890773
2022-1354251,165861.0,35.0,RUE MONTCALM,75018.0,14.0,1.0,2.338529,48.89362
2022-1354252,339000.0,42.0,RUE DE TURENNE,75003.0,21.0,1.0,2.364732,48.857736
2022-1354253,544800.0,78.0,RUE DULONG,75017.0,41.0,2.0,2.314725,48.886772
2022-1354254,355000.0,20.0,RUE RICHER,75009.0,29.0,2.0,2.34629,48.874447
2022-1354256,9000.0,260.0,RUE DU FBG ST MARTIN,75010.0,65.0,3.0,2.36804,48.882832
2022-1354257,2480000.0,12.0,RUE DE LA FERRONNERIE,75001.0,146.0,4.0,2.346758,48.860453
2022-1354259,460000.0,24.0,RUE RAMUS,75020.0,58.0,3.0,2.399528,48.862556
2022-1354261,537334.0,8.0,RUE DE L ALSACE LORRAINE,75019.0,68.0,3.0,2.393114,48.882738
2022-1354262,1450000.0,82.0,BD DES BATIGNOLLES,75017.0,115.0,6.0,2.318029,48.882291
2022-1354262,1450000.0,82.0,BD DES BATIGNOLLES,75017.0,144.0,5.0,2.318029,48.882291
2022-1354265,455000.0,5.0,RUE NICOLET,75018.0,48.0,3.0,2.346406,48.88794
2022-1354266,1670000.0,23.0,RUE DULONG,75017.0,124.0,3.0,2.316974,48.884207
2022-1354267,475000.0,43.0,RUE BROCHANT,75017.0,35.0,2.0,2.319474,48.890426
2022-1354269,215000.0,5.0,RUE CONSTANCE,75018.0,24.0,2.0,2.333316,48.885284
2022-1354270,290520.0,18.0,RUE CLAVEL,75019.0,27.0,2.0,2.384054,48.87572
2022-1354271,270000.0,57.0,RUE DU POTEAU,75018.0,29.0,1.0,2.340074,48.894623
2022-1354272,1101000.0,22.0,AV DE SAINT OUEN,75018.0,44.0,2.0,2.326738,48.888353
2022-1354272,1101000.0,22.0,AV DE SAINT OUEN,75018.0,50.0,2.0,2.326738,48.888353
2022-1354273,765000.0,76.0,RUE BEAUBOURG,75003.0,60.0,1.0,2.355264,48.863939
2022-1354274,514000.0,2.0,RUE CHERUBINI,75002.0,60.0,3.0,2.336811,48.867798
2022-1354275,222890.0,48.0,AV SECRETAN,75019.0,20.0,1.0,2.374701,48.880328
2022-1354276,210000.0,91.0,RUE DES PYRENEES,75020.0,28.0,1.0,2.405032,48.854404
2022-1354277,240000.0,6.0,RUE MARIE ET LOUISE,75010.0,25.0,2.0,2.367121,48.871976
2022-1354278,385000.0,3.0,RUE CRETET,75009.0,39.0,2.0,2.341872,48.881764
2022-1354279,426600.0,4.0,RUE DE TRETAIGNE,75018.0,37.0,2.0,2.342231,48.891492
2022-1354280,306000.0,119.0,AV JEAN JAURES,75019.0,33.0,2.0,2.381755,48.886066
2022-1354281,624000.0,1.0,RUE LACAILLE,75017.0,75.0,3.0,2.324555,48.892619
2022-1354282,190000.0,9001.0,MAR D'ORNANO,75018.0,21.0,1.0,2.348157,48.894041
2022-1354283,270000.0,2.0,RUE GUSTAVE ROUANET,75018.0,26.0,2.0,2.340625,48.896686
2022-1354284,126000.0,5.0,RUE DE L AGENT BAILLY,75009.0,9.0,1.0,2.341971,48.878001
2022-1354284,126000.0,5.0,RUE DE L AGENT BAILLY,75009.0,10.0,1.0,2.341971,48.878001
2022-1354284,126000.0,5.0,RUE DE L AGENT BAILLY,75009.0,10.0,1.0,2.341971,48.878001
2022-1354284,126000.0,5.0,RUE DE L AGENT BAILLY,75009.0,10.0,1.0,2.341971,48.878001
2022-1354285,15000.0,23.0,RUE DES MARTYRS,75009.0,6.0,1.0,2.339175,48.878421
2022-1354286,2579000.0,53.0,RUE PIERRE CHARRON,75008.0,126.0,4.0,2.302751,48.869473
2022-1354287,315256.5,88.0,RUE MARCADET,75018.0,49.0,3.0,2.346344,48.890689
2022-1354288,481975.0,36.0,RUE DE DUNKERQUE,75010.0,74.0,4.0,2.350384,48.881277
2022-1354289,657770.0,12.0,RUE DE LA COSSONNERIE,75001.0,60.0,3.0,2.348498,48.861757
2022-1354290,723380.0,18.0,RUE MEYNADIER,75019.0,47.0,2.0,2.384139,48.883812
2022-1354290,723380.0,18.0,RUE MEYNADIER,75019.0,59.0,3.0,2.384139,48.883812
2022-1354292,580000.0,4.0,RUE DARWIN,75018.0,37.0,3.0,2.340043,48.890262
2022-1354294,300000.0,2.0,RUE BOUTAREL,75004.0,21.0,2.0,2.353949,48.852186
2022-1354295,3000.0,63.0,RUE TRUFFAUT,75017.0,21.0,1.0,2.319464,48.886903
2022-1354296,915000.0,28.0,AV SIMON BOLIVAR,75019.0,90.0,4.0,2.383673,48.874927
2022-1354297,90000.0,82.0,AV DE FLANDRE,75019.0,27.0,1.0,2.375954,48.889462
2022-1354298,822464.0,31.0,RUE SAINT-GEORGES,75009.0,68.0,4.0,2.33692,48.876611
2022-1354299,393000.0,3.0,RUE DE LOGELBACH,75017.0,32.0,2.0,2.308033,48.881194
2022-1354300,590000.0,20.0,RUE DU VERTBOIS,75003.0,46.0,3.0,2.358989,48.866955
2022-1354301,580000.0,6.0,RUE DES HAUDRIETTES,75003.0,33.0,1.0,2.357892,48.86205
2022-1354303,320000.0,10.0,RUE ANDRE BARSACQ,75018.0,25.0,2.0,2.341446,48.885342
2022-1354304,1685000.0,17.0,RUE EUGENE FLACHAT,75017.0,140.0,4.0,2.298746,48.886855
2022-1354305,380000.0,19.0,RUE JACQUES KABLE,75018.0,48.0,1.0,2.361301,48.885983
2022-1354306,350000.0,88.0,RUE PHILIPPE DE GIRARD,75018.0,47.0,2.0,2.361115,48.889178
2022-1354309,863650.0,84.0,RUE PHILIPPE DE GIRARD,75018.0,113.0,4.0,2.361087,48.888824
2022-1354312,250000.0,54.0,BD BARBES,75018.0,33.0,2.0,2.349943,48.887859
2022-1354313,525000.0,12.0,RUE LAMARTINE,75009.0,55.0,4.0,2.343004,48.876835
2022-1354314,535885.0,23.0,RUE DE RICHELIEU,75001.0,43.0,2.0,2.33597,48.864847
2022-1354315,138000.0,25.0,VLA SAINT MICHEL,75018.0,28.0,2.0,2.328267,48.889698
2022-1354317,618000.0,19.0,RUE DE LA FELICITE,75017.0,50.0,2.0,2.310015,48.887087
2022-1354318,180000.0,26.0,AV GAMBETTA,75020.0,16.0,1.0,2.396119,48.864829
2022-1354319,350000.0,100.0,QUAI DE JEMMAPES,75010.0,37.0,2.0,2.364254,48.873494
2022-1354320,292000.0,35.0,RUE DE CRIMEE,75019.0,26.0,2.0,2.389966,48.878973
2022-1354321,285000.0,58.0,RUE MONTORGUEIL,75002.0,23.0,3.0,2.347109,48.864964
2022-1354322,710000.0,130.0,RUE DU FBG POISSONNIERE,75010.0,57.0,3.0,2.350162,48.88022
2022-1354322,710000.0,130.0,RUE DU FBG POISSONNIERE,75010.0,74.0,4.0,2.350162,48.88022
2022-1354323,210400.0,80.0,AV DE CLICHY,75017.0,17.0,2.0,2.324434,48.888383
2022-1354324,300000.0,78.0,RUE MARCADET,75018.0,35.0,3.0,2.347018,48.890644
2022-1354325,382000.0,9.0,AV CORENTIN CARIOU,75019.0,47.0,2.0,2.382586,48.895425
2022-1354326,278000.0,59.0,RUE DES CASCADES,75020.0,24.0,2.0,2.390988,48.871667
2022-1354328,690000.0,5.0,BD DE STRASBOURG,75010.0,59.0,3.0,2.354189,48.869873
2022-1354329,208000.0,14.0,RUE SAINT-SAUVEUR,75002.0,20.0,1.0,2.348876,48.866271
2022-1354330,805000.0,39.0,RUE DE MAUBEUGE,75009.0,73.0,3.0,2.346111,48.878869
2022-1354331,260000.0,7.0,RUE ANDRIEUX,75008.0,25.0,1.0,2.318854,48.881058
2022-1354332,988700.0,32.0,RUE DES ORMEAUX,75020.0,103.0,5.0,2.400773,48.851109
2022-1354333,1452380.0,7.0,RUE DE LA MICHODIERE,75002.0,110.0,4.0,2.334428,48.869458
